[
  {
    "id": "10924137-f291-47a6-b8c9-00fadb32a2c1",
    "title": "Merchandising Task for Hahn - Abernathy",
    "category": "MERCHANDISING",
    "reward": { "currencyCode": "GBP", "cash": 826.14, "xp": 705 },
    "location": {
      "address": "Vliegenvangerlaan, 2566 RN, Den Haag",
      "latitude": 52.0767319,
      "longitude": 4.2483385
    },
    "appointmentDateTime": "2022-08-07T21:57:01.699Z"
  },
  {
    "id": "27cc3c09-1e4c-48a9-86c4-d1bca444aef1",
    "title": "Purchase Task for Waters, Stiedemann and Gutkowski",
    "category": "PURCHASE",
    "reward": { "currencyCode": "EUR", "cash": 598.26, "xp": 567 },
    "location": {
      "address": "Raadhuislaan, 9665 KD, Oude Pekela",
      "latitude": 53.104558,
      "longitude": 7.0072942
    }
  },
  {
    "id": "1d64faaf-d458-4c17-989c-2ad1e38b7200",
    "title": "Couch Task for Nader - Ratke",
    "category": "COUCH",
    "reward": { "currencyCode": "GBP", "cash": 277.03, "xp": 81 },
    "location": {
      "address": "Hoefblad, 8445 RN, Heerenveen",
      "latitude": 52.9425067,
      "longitude": 5.9254725
    },
    "appointmentDateTime": "2022-04-01T19:55:15.343Z"
  },
  {
    "id": "5bd7c0f0-da02-415b-a00b-2e53ccfe5019",
    "title": "Ward - Koepp",
    "category": "START-HERE",
    "reward": { "xp": 1000 }
  },
  {
    "id": "80b77cc6-aae3-4901-9404-8256961b1521",
    "title": "Experience Task for Legros Inc",
    "category": "EXPERIENCE",
    "reward": { "currencyCode": "GBP", "cash": 648.47, "xp": 184 },
    "location": {
      "address": "Donauweg, 1043 AJ, Amsterdam",
      "latitude": 52.394659,
      "longitude": 4.8370988
    },
    "appointmentDateTime": "2022-12-18T13:05:40.511Z"
  },
  {
    "id": "4c3ef1c4-833b-4b0c-8f8f-2fd69d07daab",
    "title": "Merchandising Task for Dietrich - Little",
    "category": "MERCHANDISING",
    "reward": { "currencyCode": "EUR", "cash": 916.51, "xp": 446 },
    "location": {
      "address": "Westerdoksdijk, 1013AD, Amsterdam",
      "latitude": 52.3872679,
      "longitude": 4.892376
    }
  },
  {
    "id": "c944e0ac-f527-4f0d-b56f-0fb8a78ba75a",
    "title": "Checks Task for Brakus - Jaskolski",
    "category": "CHECKS",
    "reward": { "currencyCode": "GBP", "cash": 205.9, "xp": 255 },
    "location": {
      "address": "Taalstraat, 5261 BE, Vught",
      "latitude": 51.6671726,
      "longitude": 5.294402
    },
    "appointmentDateTime": "2022-05-30T23:44:33.394Z"
  },
  {
    "id": "92b95d95-fe3e-4056-ac2b-f0912604f66b",
    "title": "Experience Task for White - Dooley",
    "category": "EXPERIENCE",
    "reward": { "currencyCode": "EUR", "cash": 975.34, "xp": 407 },
    "location": {
      "address": "Kinkerstraat, 1053 DC, Amsterdam",
      "latitude": 52.3649521,
      "longitude": 4.8628216
    },
    "appointmentDateTime": "2022-12-09T19:59:28.683Z"
  },
  {
    "id": "8676d7f7-0531-4174-8034-6da9068bca11",
    "title": "Mystery Task for Nikolaus Group",
    "category": "MYSTERY",
    "reward": { "currencyCode": "EUR", "cash": 24.22, "xp": 408 },
    "location": {
      "address": "Kiekendiefhorst, 2317 AD, Leiden",
      "latitude": 52.1726879,
      "longitude": 4.5081376
    }
  },
  {
    "id": "be5f9182-f55f-4b37-8a19-08e3f1419dac",
    "title": "Checks Task for Keebler - Fisher",
    "category": "CHECKS",
    "reward": { "currencyCode": "EUR", "cash": 424.58, "xp": 494 },
    "location": {
      "address": "Albert Heijn; Jodenbreestraat 21, Amsterdam",
      "latitude": 52.3688487,
      "longitude": 4.9035384
    }
  },
  {
    "id": "f4eb7b1a-ced2-4dc3-98c5-390c52faa4d9",
    "title": "Merchandising Task for Kuhic, Toy and Blanda",
    "category": "MERCHANDISING",
    "reward": { "currencyCode": "GBP", "cash": 319.22, "xp": 30 },
    "location": {
      "address": "Kanaalstraat, 1054 XS, Amsterdam",
      "latitude": 52.3608781,
      "longitude": 4.8578002
    },
    "appointmentDateTime": "2022-05-22T01:57:38.988Z"
  },
  {
    "id": "eb0aa377-dd1d-4d6e-92fd-3033077c4a71",
    "title": "Online reviews Task for Reinger - Legros",
    "category": "ONLINE-REVIEW",
    "reward": { "currencyCode": "EUR", "cash": 424.98, "xp": 289 },
    "location": {
      "address": "Krootstraat, 1104 KR, Amsterdam",
      "latitude": 52.3139338,
      "longitude": 4.977542
    }
  },
  {
    "id": "c57d3ff4-3c97-4dff-b79d-81506086e552",
    "title": "Purchase Task for Wintheiser LLC",
    "category": "PURCHASE",
    "reward": { "currencyCode": "GBP", "cash": 471.69, "xp": 985 },
    "location": {
      "address": "Kiekendiefhorst, 2317 AD, Leiden",
      "latitude": 52.1726879,
      "longitude": 4.5081376
    }
  },
  {
    "id": "3c3a9420-e7af-4c65-b61b-deb6603cd987",
    "title": "Sales Task for Heaney - Skiles",
    "category": "SALES",
    "reward": { "currencyCode": "GBP", "cash": 270.4, "xp": 903 },
    "location": {
      "address": "Schiedamsedijk, 3134 KK, Vlaardingen",
      "latitude": 51.9087144,
      "longitude": 4.3646747
    },
    "appointmentDateTime": "2022-11-15T17:53:49.337Z"
  },
  {
    "id": "e67dc127-13d0-48e3-894c-f3afc33027be",
    "title": "Outdoor Task for Satterfield Inc",
    "category": "OUTDOOR-CHECK",
    "reward": { "currencyCode": "EUR", "cash": 841.18, "xp": 353 },
    "location": {
      "address": "Donauweg, 1043 AJ, Amsterdam",
      "latitude": 52.394659,
      "longitude": 4.8370988
    },
    "appointmentDateTime": "2022-10-10T03:22:12.696Z"
  },
  {
    "id": "e66f2b41-f06a-4164-8844-9893c76577f4",
    "title": "Sales Task for Klocko Group",
    "category": "SALES",
    "reward": { "currencyCode": "GBP", "cash": 658.18, "xp": 822 },
    "location": {
      "address": "Gagelveld, 5541 GP, Reusel",
      "latitude": 51.3696168,
      "longitude": 5.1618537
    },
    "appointmentDateTime": "2022-11-13T07:27:00.504Z"
  },
  {
    "id": "673931b7-fe06-43d8-8236-75f43d6f0757",
    "title": "Online reviews Task for Altenwerth Group",
    "category": "ONLINE-REVIEW",
    "reward": { "currencyCode": "GBP", "cash": 297.11, "xp": 664 },
    "location": {
      "address": "Hoefblad, 8445 RN, Heerenveen",
      "latitude": 52.9425067,
      "longitude": 5.9254725
    },
    "appointmentDateTime": "2022-09-12T13:44:02.500Z"
  },
  {
    "id": "0836e3e9-10a5-47a1-a5fe-b63d6b6ac1d8",
    "title": "Couch Task for Sauer and Sons",
    "category": "COUCH",
    "reward": { "currencyCode": "EUR", "cash": 402.69, "xp": 912 },
    "location": {
      "address": "Van Duylstraat, 3026 SL, Rotterdam",
      "latitude": 51.9114992,
      "longitude": 4.4432904
    }
  },
  {
    "id": "eedbf31e-df6b-4e5d-a00f-dddaca9c6995",
    "title": "Sales Task for Anderson, Braun and Waters",
    "category": "SALES",
    "reward": { "currencyCode": "EUR", "cash": 691.31, "xp": 285 },
    "location": {
      "address": "Kanaalstraat, 1054 XG, Amsterdam",
      "latitude": 52.3606387,
      "longitude": 4.8575122
    }
  },
  {
    "id": "4a88848e-0c60-40e4-9642-5c141f746c61",
    "title": "Sales Task for Langosh - Kshlerin",
    "category": "SALES",
    "reward": { "currencyCode": "GBP", "cash": 409.07, "xp": 630 },
    "location": {
      "address": "Raadhuislaan, 9665 KD, Oude Pekela",
      "latitude": 53.104558,
      "longitude": 7.0072942
    }
  },
  {
    "id": "eae9cd37-6936-49be-80c9-41f76728a267",
    "title": "Outdoor Task for Wisoky - Schinner",
    "category": "OUTDOOR-CHECK",
    "reward": { "currencyCode": "EUR", "cash": 574.74, "xp": 169 },
    "location": {
      "address": "Taalstraat, 5261 BE, Vught",
      "latitude": 51.6671726,
      "longitude": 5.294402
    }
  },
  {
    "id": "f669a7bc-c055-41e6-a825-d1fcbfc291d7",
    "title": "Outdoor Task for Bayer LLC",
    "category": "OUTDOOR-CHECK",
    "reward": { "currencyCode": "EUR", "cash": 394.78, "xp": 522 },
    "location": {
      "address": "Kiekendiefhorst, 2317 AD, Leiden",
      "latitude": 52.1726879,
      "longitude": 4.5081376
    }
  },
  {
    "id": "0a016e24-4a56-49b0-9c42-95291c739519",
    "title": "Other Task for Wehner Inc",
    "category": "OTHER",
    "reward": { "currencyCode": "GBP", "cash": 941.96, "xp": 740 },
    "location": {
      "address": "Kinkerstraat, 1053 DC, Amsterdam",
      "latitude": 52.3649521,
      "longitude": 4.8628216
    },
    "appointmentDateTime": "2022-05-18T04:44:30.088Z"
  },
  {
    "id": "13163ce1-ab5e-4d0f-aa2f-8f332dd39bc3",
    "title": "Purchase Task for Kuphal - Kuphal",
    "category": "PURCHASE",
    "reward": { "currencyCode": "EUR", "cash": 346.18, "xp": 861 },
    "location": {
      "address": "Taalstraat, 5261 BE, Vught",
      "latitude": 51.6671726,
      "longitude": 5.294402
    },
    "appointmentDateTime": "2022-05-26T00:22:11.723Z"
  },
  {
    "id": "4d99166a-d411-4796-8c1c-39cff4662021",
    "title": "Other Task for Kemmer Group",
    "category": "OTHER",
    "reward": { "currencyCode": "GBP", "cash": 455.22, "xp": 403 },
    "location": {
      "address": "Westerdok, 1013 BH, Amsterdam",
      "latitude": 52.3834939,
      "longitude": 4.8916505
    }
  },
  {
    "id": "8c5c3def-5eda-4d50-b0d9-6e403eb3acdc",
    "title": "Sales Task for Parisian - McGlynn",
    "category": "SALES",
    "reward": { "currencyCode": "GBP", "cash": 390.04, "xp": 284 },
    "location": {
      "address": "Raadhuislaan, 9665 KD, Oude Pekela",
      "latitude": 53.104558,
      "longitude": 7.0072942
    }
  },
  {
    "id": "43f3d06f-45b9-469c-8929-eb1e09b55fe4",
    "title": "Merchandising Task for Osinski - Leffler",
    "category": "MERCHANDISING",
    "reward": { "currencyCode": "GBP", "cash": 619.54, "xp": 385 },
    "location": {
      "address": "Charlotte van Bourbonhof, 5611 HZ, Eindhoven",
      "latitude": 51.4370533,
      "longitude": 5.4704999
    },
    "appointmentDateTime": "2022-08-16T13:10:17.849Z"
  },
  {
    "id": "2cc079b2-d263-4b7e-a36e-94cb43b53547",
    "title": "Nienow - Torp",
    "category": "START-HERE",
    "reward": { "xp": 1000 }
  },
  {
    "id": "98e26cb5-4e3f-43d3-b5ed-a2e53565ff8b",
    "title": "Online reviews Task for Bartoletti - Lehner",
    "category": "ONLINE-REVIEW",
    "reward": { "currencyCode": "EUR", "cash": 501.38, "xp": 375 },
    "location": {
      "address": "Wilhelminastraat, 1015 RL, Amsterdam",
      "latitude": 52.3612447,
      "longitude": 4.862535
    }
  },
  {
    "id": "3df451e0-192f-4574-8961-c7621cbffa4c",
    "title": "Online reviews Task for Bartell and Sons",
    "category": "ONLINE-REVIEW",
    "reward": { "currencyCode": "GBP", "cash": 391.26, "xp": 455 },
    "location": {
      "address": "Kanaalstraat 206, 1054XS Amsterdam",
      "latitude": 52.3608781,
      "longitude": 4.8578002
    }
  },
  {
    "id": "2bd9362e-9206-4cf1-b00b-69047a938a55",
    "title": "Experience Task for Little - Mraz",
    "category": "EXPERIENCE",
    "reward": { "currencyCode": "EUR", "cash": 99.21, "xp": 706 },
    "location": {
      "address": "Charlotte van Bourbonhof, 5611 HZ, Eindhoven",
      "latitude": 51.4370533,
      "longitude": 5.4704999
    },
    "appointmentDateTime": "2022-02-15T16:04:15.062Z"
  },
  {
    "id": "4127cd67-f103-4eed-bdc7-2814190eae21",
    "title": "Other Task for MacGyver, Schaefer and Rath",
    "category": "OTHER",
    "reward": { "currencyCode": "EUR", "cash": 636.36, "xp": 439 },
    "location": {
      "address": "Gagelveld, 5541 GP, Reusel",
      "latitude": 51.3696168,
      "longitude": 5.1618537
    }
  },
  {
    "id": "a375d6f0-9a8a-4c6a-9f2f-1239e12268f0",
    "title": "Couch Task for Carter, Schoen and Trantow",
    "category": "COUCH",
    "reward": { "currencyCode": "GBP", "cash": 506.45, "xp": 601 },
    "location": {
      "address": "Schiedamsedijk, 3134 KK, Vlaardingen",
      "latitude": 51.9087144,
      "longitude": 4.3646747
    },
    "appointmentDateTime": "2022-07-31T04:33:02.688Z"
  },
  {
    "id": "04119b49-0914-4960-9e75-e1d155263f8e",
    "title": "Purchase Task for Metz - Wuckert",
    "category": "PURCHASE",
    "reward": { "currencyCode": "EUR", "cash": 129.33, "xp": 509 },
    "location": {
      "address": "Charlotte van Bourbonhof, 5611 HZ, Eindhoven",
      "latitude": 51.4370533,
      "longitude": 5.4704999
    },
    "appointmentDateTime": "2022-09-02T00:20:21.035Z"
  },
  {
    "id": "4d93b6d1-5d5f-49e2-ae17-4a28fb941d3b",
    "title": "Roob - Pagac",
    "category": "START-HERE",
    "reward": { "xp": 1000 }
  },
  {
    "id": "c16f54f1-e960-48c4-9cab-5aed0166af93",
    "title": "Merchandising Task for Legros LLC",
    "category": "MERCHANDISING",
    "reward": { "currencyCode": "EUR", "cash": 877.33, "xp": 603 },
    "location": {
      "address": "Schaarweg, 1276 AE, Huizen",
      "latitude": 52.2949518,
      "longitude": 5.2496192
    },
    "appointmentDateTime": "2022-06-13T08:33:11.137Z"
  },
  {
    "id": "ec241b27-6e98-485d-a4c2-136a9b69c34b",
    "title": "Sales Task for Paucek, Murazik and Cruickshank",
    "category": "SALES",
    "reward": { "currencyCode": "GBP", "cash": 224.79, "xp": 406 },
    "location": {
      "address": "Albert Heijn; Jodenbreestraat 21, Amsterdam",
      "latitude": 52.3688487,
      "longitude": 4.9035384
    },
    "appointmentDateTime": "2022-11-07T12:46:49.579Z"
  },
  {
    "id": "341b8d9b-fd8c-4982-8e8c-319caa4e4849",
    "title": "Ankunding - Mayer",
    "category": "TRAINING",
    "reward": { "xp": 1000 },
    "location": {
      "address": "Schiedamsedijk, 3134 KK, Vlaardingen",
      "latitude": 51.9087144,
      "longitude": 4.3646747
    }
  },
  {
    "id": "54037be0-07de-4284-bb32-8b8be14cc992",
    "title": "Mystery Task for Bins, Renner and Streich",
    "category": "MYSTERY",
    "reward": { "currencyCode": "GBP", "cash": 331.36, "xp": 32 },
    "location": {
      "address": "Schaarweg, 1276 AE, Huizen",
      "latitude": 52.2949518,
      "longitude": 5.2496192
    }
  },
  {
    "id": "d0511a55-cbae-49e1-b0f5-4021c5548e17",
    "title": "Ryan, Lehner and Sauer",
    "category": "START-HERE",
    "reward": { "xp": 1000 }
  },
  {
    "id": "e0d05171-10d4-4cd2-aab9-802f3e37449b",
    "title": "Hagenes Group",
    "category": "TRAINING",
    "reward": { "xp": 1000 },
    "location": {
      "address": "Taalstraat, 5261 BE, Vught",
      "latitude": 51.6671726,
      "longitude": 5.294402
    }
  },
  {
    "id": "376f4be0-27f3-45eb-8843-707c5653338f",
    "title": "Hauck and Sons",
    "category": "START-HERE",
    "reward": { "xp": 1000 }
  },
  {
    "id": "6ca75667-f38c-4f54-84a6-fb100e903859",
    "title": "Checks Task for Daugherty - Hagenes",
    "category": "CHECKS",
    "reward": { "currencyCode": "GBP", "cash": 900.52, "xp": 231 },
    "location": {
      "address": "Hoefblad, 8445 RN, Heerenveen",
      "latitude": 52.9425067,
      "longitude": 5.9254725
    },
    "appointmentDateTime": "2022-02-15T04:07:15.102Z"
  },
  {
    "id": "a4711f44-69d1-48f7-aef1-ad955f1cb81c",
    "title": "Huels - Krajcik",
    "category": "TRAINING",
    "reward": { "xp": 1000 },
    "location": {
      "address": "Westerdok, 1013 BH, Amsterdam",
      "latitude": 52.3834939,
      "longitude": 4.8916505
    }
  },
  {
    "id": "8f5a60e0-1832-40e1-8b62-e8ea7eed2458",
    "title": "Dietrich and Sons",
    "category": "TRAINING",
    "reward": { "xp": 1000 },
    "location": {
      "address": "Willem de Zwijgerweg, 5684 SL, Best",
      "latitude": 51.5031407,
      "longitude": 5.3923573
    }
  },
  {
    "id": "6341af48-dec9-43a1-a2e8-c03a97195027",
    "title": "Lemke, Williamson and Hayes",
    "category": "START-HERE",
    "reward": { "xp": 1000 }
  },
  {
    "id": "fe88b87d-fd57-4e08-a845-867db2a78c23",
    "title": "Online reviews Task for Johnson - Thiel",
    "category": "ONLINE-REVIEW",
    "reward": { "currencyCode": "EUR", "cash": 836.23, "xp": 936 },
    "location": {
      "address": "Vliegenvangerlaan, 2566 RN, Den Haag",
      "latitude": 52.0767319,
      "longitude": 4.2483385
    },
    "appointmentDateTime": "2022-12-06T09:04:54.724Z"
  },
  {
    "id": "7a451c5f-2724-4810-8648-1d7b32e0ab16",
    "title": "Pacocha LLC",
    "category": "TRAINING",
    "reward": { "xp": 1000 },
    "location": {
      "address": "Westerdoksdijk, 1013AD, Amsterdam",
      "latitude": 52.3872679,
      "longitude": 4.892376
    }
  },
  {
    "id": "569c661a-1712-4e90-9e94-deb81e04ffbf",
    "title": "Oberbrunner Inc",
    "category": "START-HERE",
    "reward": { "xp": 1000 }
  },
  {
    "id": "37196f47-a281-417f-833b-0c9a4710b24a",
    "title": "Other Task for Casper Group",
    "category": "OTHER",
    "reward": { "currencyCode": "EUR", "cash": 622.66, "xp": 247 },
    "location": {
      "address": "Kanaalstraat, 1054 WZ, Amsterdam",
      "latitude": 52.3628334,
      "longitude": 4.866487
    },
    "appointmentDateTime": "2022-12-02T15:30:50.619Z"
  },
  {
    "id": "dfedeca0-9b7d-4a60-a89c-6ccc12896446",
    "title": "Predovic - Langosh",
    "category": "TRAINING",
    "reward": { "xp": 1000 },
    "location": {
      "address": "Charlotte van Bourbonhof, 5611 HZ, Eindhoven",
      "latitude": 51.4370533,
      "longitude": 5.4704999
    }
  },
  {
    "id": "7ebdef8c-5f47-4d5a-9dfd-ab66c7affa2c",
    "title": "Other Task for Kessler, Gulgowski and Turner",
    "category": "OTHER",
    "reward": { "currencyCode": "GBP", "cash": 815.61, "xp": 828 },
    "location": {
      "address": "Albert Heijn; Jodenbreestraat 21, Amsterdam",
      "latitude": 52.3688487,
      "longitude": 4.9035384
    }
  },
  {
    "id": "cca762ef-46a2-4996-bfcd-0fbeb94c43bb",
    "title": "Purchase Task for Gulgowski - Wolff",
    "category": "PURCHASE",
    "reward": { "currencyCode": "EUR", "cash": 528.16, "xp": 43 },
    "location": {
      "address": "Willem de Zwijgerweg, 5684 SL, Best",
      "latitude": 51.5031407,
      "longitude": 5.3923573
    },
    "appointmentDateTime": "2023-01-14T16:44:30.330Z"
  },
  {
    "id": "4c85fcf6-0e99-45df-9588-d41379d79ceb",
    "title": "Purchase Task for Larkin - Reichert",
    "category": "PURCHASE",
    "reward": { "currencyCode": "EUR", "cash": 916.28, "xp": 32 },
    "location": {
      "address": "Albert Heijn; Jodenbreestraat 21, Amsterdam",
      "latitude": 52.3688487,
      "longitude": 4.9035384
    }
  },
  {
    "id": "f0bf6fda-5142-4374-9d7a-7bfac52d7cb8",
    "title": "Experience Task for Dicki, Stehr and Luettgen",
    "category": "EXPERIENCE",
    "reward": { "currencyCode": "GBP", "cash": 801.68, "xp": 40 },
    "location": {
      "address": "Kanaalstraat, 1054 XS, Amsterdam",
      "latitude": 52.3608781,
      "longitude": 4.8578002
    }
  },
  {
    "id": "19c00761-d2b0-4bac-a602-2002d4af70fa",
    "title": "Experience Task for Hickle, Renner and Champlin",
    "category": "EXPERIENCE",
    "reward": { "currencyCode": "EUR", "cash": 219.94, "xp": 110 },
    "location": {
      "address": "Krootstraat, 1104 KR, Amsterdam",
      "latitude": 52.3139338,
      "longitude": 4.977542
    }
  },
  {
    "id": "18da8b1f-da58-433b-94e9-dd9f221cfdbd",
    "title": "Couch Task for Olson, Bashirian and Corkery",
    "category": "COUCH",
    "reward": { "currencyCode": "GBP", "cash": 416.72, "xp": 715 },
    "location": {
      "address": "Javaplein, 1095 CH, Amsterdam",
      "latitude": 52.3639074,
      "longitude": 4.9400926
    },
    "appointmentDateTime": "2022-11-01T03:55:25.159Z"
  },
  {
    "id": "56920fbf-0538-4ddb-abc4-f91df569a143",
    "title": "Experience Task for Jacobi, Feest and Becker",
    "category": "EXPERIENCE",
    "reward": { "currencyCode": "GBP", "cash": 328.11, "xp": 180 },
    "location": {
      "address": "Donauweg, 1043 AJ, Amsterdam",
      "latitude": 52.394659,
      "longitude": 4.8370988
    }
  },
  {
    "id": "beb057f0-b92b-444e-9c6c-9ef674ca7a4e",
    "title": "Outdoor Task for Terry - Brekke",
    "category": "OUTDOOR-CHECK",
    "reward": { "currencyCode": "EUR", "cash": 833.14, "xp": 207 },
    "location": {
      "address": "Vliegenvangerlaan, 2566 RN, Den Haag",
      "latitude": 52.0767319,
      "longitude": 4.2483385
    },
    "appointmentDateTime": "2022-04-27T18:24:55.596Z"
  },
  {
    "id": "9e4153f6-d0fe-4b49-84d1-249ad5beacfc",
    "title": "Other Task for Romaguera, Mann and Hilpert",
    "category": "OTHER",
    "reward": { "currencyCode": "EUR", "cash": 365.46, "xp": 0 },
    "location": {
      "address": "Kiekendiefhorst, 2317 AD, Leiden",
      "latitude": 52.1726879,
      "longitude": 4.5081376
    }
  },
  {
    "id": "23280ad7-2980-4a4f-81fa-ef46d43e9ba4",
    "title": "Mystery Task for Wisoky Inc",
    "category": "MYSTERY",
    "reward": { "currencyCode": "GBP", "cash": 240.56, "xp": 300 },
    "location": {
      "address": "Charlotte van Bourbonhof, 5611 HZ, Eindhoven",
      "latitude": 51.4370533,
      "longitude": 5.4704999
    },
    "appointmentDateTime": "2022-03-12T05:28:23.329Z"
  },
  {
    "id": "abde2eed-0a9c-4a6f-9b6c-1b795c377000",
    "title": "Erdman - Kris",
    "category": "TRAINING",
    "reward": { "xp": 1000 },
    "location": {
      "address": "Willem de Zwijgerweg, 5684 SL, Best",
      "latitude": 51.5031407,
      "longitude": 5.3923573
    }
  },
  {
    "id": "019d0a30-d2ef-48c5-ad41-5931ae653b8b",
    "title": "Purchase Task for Wiegand - Ferry",
    "category": "PURCHASE",
    "reward": { "currencyCode": "GBP", "cash": 265.17, "xp": 871 },
    "location": {
      "address": "Westerdok, 1013 BH, Amsterdam",
      "latitude": 52.3834939,
      "longitude": 4.8916505
    }
  },
  {
    "id": "5331be72-b385-4039-a81b-3dab2d7337c2",
    "title": "Merchandising Task for Swaniawski Inc",
    "category": "MERCHANDISING",
    "reward": { "currencyCode": "GBP", "cash": 871.68, "xp": 760 },
    "location": {
      "address": "Westerdok, 1013 BH, Amsterdam",
      "latitude": 52.3834939,
      "longitude": 4.8916505
    },
    "appointmentDateTime": "2023-01-01T21:13:14.513Z"
  },
  {
    "id": "c45c1361-022e-454b-8e2a-7fa58ff0b9eb",
    "title": "Outdoor Task for Zemlak Group",
    "category": "OUTDOOR-CHECK",
    "reward": { "currencyCode": "GBP", "cash": 134.67, "xp": 301 },
    "location": {
      "address": "Willem de Zwijgerweg, 5684 SL, Best",
      "latitude": 51.5031407,
      "longitude": 5.3923573
    },
    "appointmentDateTime": "2022-07-09T12:05:59.640Z"
  },
  {
    "id": "3368b323-8ea7-45c7-86f6-2bbbddfee909",
    "title": "Outdoor Task for Pagac Inc",
    "category": "OUTDOOR-CHECK",
    "reward": { "currencyCode": "EUR", "cash": 695.66, "xp": 605 },
    "location": {
      "address": "Taalstraat, 5261 BE, Vught",
      "latitude": 51.6671726,
      "longitude": 5.294402
    },
    "appointmentDateTime": "2022-11-17T06:48:54.175Z"
  },
  {
    "id": "6497eb1e-57b4-42be-a558-91876507ffdc",
    "title": "Mystery Task for Pollich - Hackett",
    "category": "MYSTERY",
    "reward": { "currencyCode": "EUR", "cash": 110.64, "xp": 766 },
    "location": {
      "address": "Westerdok, 1013 BH, Amsterdam",
      "latitude": 52.3834939,
      "longitude": 4.8916505
    }
  },
  {
    "id": "8a28f11e-5bb1-4445-858a-f64f65fb009f",
    "title": "Checks Task for Hudson, Baumbach and Wilkinson",
    "category": "CHECKS",
    "reward": { "currencyCode": "GBP", "cash": 881.15, "xp": 508 },
    "location": {
      "address": "Kanaalstraat 206, 1054XS Amsterdam",
      "latitude": 52.3608781,
      "longitude": 4.8578002
    },
    "appointmentDateTime": "2022-01-31T09:53:59.773Z"
  },
  {
    "id": "5299686e-af6a-4d6e-a1ba-acaa85ca66f8",
    "title": "Krajcik, Batz and Bosco",
    "category": "START-HERE",
    "reward": { "xp": 1000 }
  },
  {
    "id": "dac9362e-b5f5-41ca-a20a-e33c196a6597",
    "title": "Outdoor Task for MacGyver, Schaden and O'Keefe",
    "category": "OUTDOOR-CHECK",
    "reward": { "currencyCode": "EUR", "cash": 195.28, "xp": 116 },
    "location": {
      "address": "Krootstraat, 1104 KR, Amsterdam",
      "latitude": 52.3139338,
      "longitude": 4.977542
    }
  },
  {
    "id": "0d958263-8753-4a8b-b25a-6504adf2e5e7",
    "title": "Conroy, Haley and Kozey",
    "category": "START-HERE",
    "reward": { "xp": 1000 }
  },
  {
    "id": "8aa6cfb6-7d8f-4c72-8485-4655a6b3dc42",
    "title": "Online reviews Task for Durgan - Herzog",
    "category": "ONLINE-REVIEW",
    "reward": { "currencyCode": "GBP", "cash": 382.08, "xp": 723 },
    "location": {
      "address": "StreetThatDoesNotExist, 1013AD, CityThatDoesNotExist",
      "latitude": 52.3649521,
      "longitude": 4.862821599999
    }
  },
  {
    "id": "30274d9c-bf60-41dc-bfe1-594d79cdd240",
    "title": "Purchase Task for Greenholt - Hamill",
    "category": "PURCHASE",
    "reward": { "currencyCode": "GBP", "cash": 33.53, "xp": 839 },
    "location": {
      "address": "Javaplein, 1095 CH, Amsterdam",
      "latitude": 52.3639074,
      "longitude": 4.9400926
    },
    "appointmentDateTime": "2022-09-23T04:42:52.283Z"
  },
  {
    "id": "3229b8d6-4dba-4d79-b14e-3fffeed9fb91",
    "title": "Checks Task for Leuschke, McGlynn and Mayert",
    "category": "CHECKS",
    "reward": { "currencyCode": "GBP", "cash": 700.92, "xp": 181 },
    "location": {
      "address": "StreetThatDoesNotExist, 1013AD, CityThatDoesNotExist",
      "latitude": 52.3649521,
      "longitude": 4.862821599999
    }
  },
  {
    "id": "1b19e737-5ae4-494e-9363-25a53e325eb7",
    "title": "Boyer - Windler",
    "category": "TRAINING",
    "reward": { "xp": 1000 },
    "location": {
      "address": "Krootstraat, 1104 KR, Amsterdam",
      "latitude": 52.3139338,
      "longitude": 4.977542
    }
  },
  {
    "id": "81a66ecc-8350-40f9-a305-6f0986a50354",
    "title": "Couch Task for Goyette - Stehr",
    "category": "COUCH",
    "reward": { "currencyCode": "GBP", "cash": 735.26, "xp": 57 },
    "location": {
      "address": "Raadhuislaan, 9665 KD, Oude Pekela",
      "latitude": 53.104558,
      "longitude": 7.0072942
    }
  },
  {
    "id": "62ae0b13-39c9-475a-a8a8-661878d06b03",
    "title": "Outdoor Task for Beatty - Herzog",
    "category": "OUTDOOR-CHECK",
    "reward": { "currencyCode": "GBP", "cash": 950.92, "xp": 349 },
    "location": {
      "address": "Vliegenvangerlaan, 2566 RN, Den Haag",
      "latitude": 52.0767319,
      "longitude": 4.2483385
    }
  },
  {
    "id": "bf9e3669-c5a1-401a-8a91-ae11cdc5d7e5",
    "title": "Experience Task for West LLC",
    "category": "EXPERIENCE",
    "reward": { "currencyCode": "GBP", "cash": 714.65, "xp": 842 },
    "location": {
      "address": "Westerdoksdijk, 1013 BX, Amsterdam",
      "latitude": 52.3856225,
      "longitude": 4.8928882
    }
  },
  {
    "id": "252933e4-f37f-44bb-85d0-f36cf0ee617f",
    "title": "Ledner - O'Keefe",
    "category": "START-HERE",
    "reward": { "xp": 1000 }
  },
  {
    "id": "cb3675d7-2c53-4bd1-a1f6-5f975e31732a",
    "title": "Outdoor Task for Waelchi and Sons",
    "category": "OUTDOOR-CHECK",
    "reward": { "currencyCode": "GBP", "cash": 463.34, "xp": 300 },
    "location": {
      "address": "Kanaalstraat, 1054 XG, Amsterdam",
      "latitude": 52.3606387,
      "longitude": 4.8575122
    }
  },
  {
    "id": "f345b3f3-1a3b-4b9e-87b2-db2dfc45a5d1",
    "title": "Purchase Task for Kuphal and Sons",
    "category": "PURCHASE",
    "reward": { "currencyCode": "GBP", "cash": 567.11, "xp": 793 },
    "location": {
      "address": "Krootstraat, 1104 KR, Amsterdam",
      "latitude": 52.3139338,
      "longitude": 4.977542
    }
  },
  {
    "id": "434e6b6b-00f3-4c2e-b7de-9b7073194e4f",
    "title": "Daugherty, Douglas and Kassulke",
    "category": "START-HERE",
    "reward": { "xp": 1000 }
  },
  {
    "id": "4548c734-2465-4814-9f8a-9b72ec963211",
    "title": "Conroy, Grant and Mayert",
    "category": "TRAINING",
    "reward": { "xp": 1000 },
    "location": {
      "address": "Kanaalstraat, 1054 XG, Amsterdam",
      "latitude": 52.3606387,
      "longitude": 4.8575122
    }
  },
  {
    "id": "8f3cba35-c374-4485-a2bd-5c732b1d22f1",
    "title": "Couch Task for Stiedemann Inc",
    "category": "COUCH",
    "reward": { "currencyCode": "GBP", "cash": 416.28, "xp": 413 },
    "location": {
      "address": "Kiekendiefhorst, 2317 AD, Leiden",
      "latitude": 52.1726879,
      "longitude": 4.5081376
    },
    "appointmentDateTime": "2022-07-24T17:48:46.966Z"
  },
  {
    "id": "2a6df330-188e-4630-a624-e93f6250d260",
    "title": "Outdoor Task for Nienow Inc",
    "category": "OUTDOOR-CHECK",
    "reward": { "currencyCode": "EUR", "cash": 737.17, "xp": 958 },
    "location": {
      "address": "Kanaalstraat, 1054 XG, Amsterdam",
      "latitude": 52.3606387,
      "longitude": 4.8575122
    },
    "appointmentDateTime": "2022-12-10T04:39:21.614Z"
  },
  {
    "id": "2f063b87-3cec-4181-be3e-8505f20edfd4",
    "title": "Online reviews Task for Grant, Adams and Walker",
    "category": "ONLINE-REVIEW",
    "reward": { "currencyCode": "GBP", "cash": 379.98, "xp": 996 },
    "location": {
      "address": "Schaarweg, 1276 AE, Huizen",
      "latitude": 52.2949518,
      "longitude": 5.2496192
    }
  },
  {
    "id": "2116b285-9243-490e-b926-e2f81304e7d5",
    "title": "Other Task for Crona LLC",
    "category": "OTHER",
    "reward": { "currencyCode": "EUR", "cash": 22.3, "xp": 276 },
    "location": {
      "address": "Kiekendiefhorst, 2317 AD, Leiden",
      "latitude": 52.1726879,
      "longitude": 4.5081376
    },
    "appointmentDateTime": "2022-12-21T05:14:56.514Z"
  },
  {
    "id": "f77f0dc3-bf42-4505-b222-84bbc2a29ea0",
    "title": "Feil - Stiedemann",
    "category": "TRAINING",
    "reward": { "xp": 1000 },
    "location": {
      "address": "Kiekendiefhorst, 2317 AD, Leiden",
      "latitude": 52.1726879,
      "longitude": 4.5081376
    }
  },
  {
    "id": "30824b3d-1ae4-4127-ad97-ee81fbea2750",
    "title": "Merchandising Task for Braun, Littel and Lang",
    "category": "MERCHANDISING",
    "reward": { "currencyCode": "EUR", "cash": 578.15, "xp": 773 },
    "location": {
      "address": "Kanaalstraat, 1054 XG, Amsterdam",
      "latitude": 52.3606387,
      "longitude": 4.8575122
    },
    "appointmentDateTime": "2022-03-07T09:08:38.480Z"
  },
  {
    "id": "c7bf6687-bfc0-4de9-b8e4-0cbd4dc93e5c",
    "title": "Rodriguez and Sons",
    "category": "TRAINING",
    "reward": { "xp": 1000 },
    "location": {
      "address": "Kanaalstraat, 1054 WZ, Amsterdam",
      "latitude": 52.3628334,
      "longitude": 4.866487
    }
  },
  {
    "id": "646fc15b-2aed-44f3-a4dd-943a6cb5af99",
    "title": "Other Task for Gerhold - Reynolds",
    "category": "OTHER",
    "reward": { "currencyCode": "GBP", "cash": 360.52, "xp": 970 },
    "location": {
      "address": "Wilhelminastraat, 1015 RL, Amsterdam",
      "latitude": 52.3612447,
      "longitude": 4.862535
    }
  },
  {
    "id": "9d4846c6-f251-4fde-8d44-5839e32ba9f3",
    "title": "Purchase Task for McGlynn, Hermann and Wunsch",
    "category": "PURCHASE",
    "reward": { "currencyCode": "GBP", "cash": 165.96, "xp": 677 },
    "location": {
      "address": "Kinkerstraat, 1053 DC, Amsterdam",
      "latitude": 52.3649521,
      "longitude": 4.8628216
    },
    "appointmentDateTime": "2022-06-17T21:10:36.555Z"
  },
  {
    "id": "2074d781-b49e-4a05-859c-e56ff4eec6a2",
    "title": "Couch Task for Kuhlman - Schneider",
    "category": "COUCH",
    "reward": { "currencyCode": "GBP", "cash": 537.22, "xp": 406 },
    "location": {
      "address": "Schaarweg, 1276 AE, Huizen",
      "latitude": 52.2949518,
      "longitude": 5.2496192
    }
  },
  {
    "id": "9cefb7f0-6aba-4ba4-973f-3e5239048d16",
    "title": "Experience Task for Balistreri - Schumm",
    "category": "EXPERIENCE",
    "reward": { "currencyCode": "EUR", "cash": 766.52, "xp": 598 },
    "location": {
      "address": "Kanaalstraat 206, 1054XS Amsterdam",
      "latitude": 52.3608781,
      "longitude": 4.8578002
    },
    "appointmentDateTime": "2022-02-06T14:32:31.764Z"
  },
  {
    "id": "8b48d1e9-f777-434f-8150-e3869d521aea",
    "title": "Other Task for Fritsch - Kirlin",
    "category": "OTHER",
    "reward": { "currencyCode": "EUR", "cash": 287.74, "xp": 539 },
    "location": {
      "address": "Westerdoksdijk, 1013AD, Amsterdam",
      "latitude": 52.3872679,
      "longitude": 4.892376
    },
    "appointmentDateTime": "2022-05-02T02:02:39.965Z"
  },
  {
    "id": "9cf7abd7-acc2-4544-834b-cc541d6b880f",
    "title": "Merchandising Task for Lueilwitz Group",
    "category": "MERCHANDISING",
    "reward": { "currencyCode": "EUR", "cash": 920.96, "xp": 853 },
    "location": {
      "address": "Kanaalstraat 206 2, 1054XS Amsterdam",
      "latitude": 52.3608781,
      "longitude": 4.8578002
    }
  },
  {
    "id": "88e1dc19-effb-4c64-a7c7-8259d6c7256d",
    "title": "Checks Task for Schmeler Group",
    "category": "CHECKS",
    "reward": { "currencyCode": "GBP", "cash": 110.2, "xp": 555 },
    "location": {
      "address": "Kiekendiefhorst, 2317 AD, Leiden",
      "latitude": 52.1726879,
      "longitude": 4.5081376
    }
  },
  {
    "id": "ce780f03-ed7c-4f97-82e6-8f7e84ead812",
    "title": "Merchandising Task for Mayer - Gorczany",
    "category": "MERCHANDISING",
    "reward": { "currencyCode": "GBP", "cash": 208.33, "xp": 391 },
    "location": {
      "address": "Schiedamsedijk, 3134 KK, Vlaardingen",
      "latitude": 51.9087144,
      "longitude": 4.3646747
    }
  },
  {
    "id": "de1342d8-7f04-47db-87ab-5f1a5a10c06f",
    "title": "Couch Task for McGlynn Inc",
    "category": "COUCH",
    "reward": { "currencyCode": "GBP", "cash": 393.32, "xp": 541 },
    "location": {
      "address": "Kanaalstraat, 1054 WZ, Amsterdam",
      "latitude": 52.3628334,
      "longitude": 4.866487
    }
  },
  {
    "id": "fa2ae3be-92f0-40a2-b693-87c6025928aa",
    "title": "Checks Task for Klein, Dach and Reichel",
    "category": "CHECKS",
    "reward": { "currencyCode": "EUR", "cash": 508.53, "xp": 800 },
    "location": {
      "address": "Charlotte van Bourbonhof, 5611 HZ, Eindhoven",
      "latitude": 51.4370533,
      "longitude": 5.4704999
    }
  },
  {
    "id": "0eccdceb-5a3a-43b0-93df-89ddb52e8e76",
    "title": "Couch Task for Okuneva Group",
    "category": "COUCH",
    "reward": { "currencyCode": "GBP", "cash": 105.79, "xp": 810 },
    "location": {
      "address": "Schiedamsedijk, 3134 KK, Vlaardingen",
      "latitude": 51.9087144,
      "longitude": 4.3646747
    }
  },
  {
    "id": "9d2bcf3b-96ac-41bc-8b36-3f86347977d0",
    "title": "Merchandising Task for D'Amore - Heller",
    "category": "MERCHANDISING",
    "reward": { "currencyCode": "GBP", "cash": 500.2, "xp": 167 },
    "location": {
      "address": "Charlotte van Bourbonhof, 5611 HZ, Eindhoven",
      "latitude": 51.4370533,
      "longitude": 5.4704999
    }
  },
  {
    "id": "c93e810e-c333-4fe2-9492-48212c2ac7d4",
    "title": "Purchase Task for Orn, Carter and Gleason",
    "category": "PURCHASE",
    "reward": { "currencyCode": "EUR", "cash": 54.77, "xp": 939 },
    "location": {
      "address": "Kiekendiefhorst, 2317 AD, Leiden",
      "latitude": 52.1726879,
      "longitude": 4.5081376
    }
  },
  {
    "id": "a2ce3b2d-85db-414a-a5f8-05f430d217a8",
    "title": "Sales Task for Stoltenberg, Murphy and Altenwerth",
    "category": "SALES",
    "reward": { "currencyCode": "EUR", "cash": 266.15, "xp": 93 },
    "location": {
      "address": "Albert Heijn; Jodenbreestraat 21, Amsterdam",
      "latitude": 52.3688487,
      "longitude": 4.9035384
    },
    "appointmentDateTime": "2022-10-23T08:46:30.669Z"
  },
  {
    "id": "9cf172f6-5323-469b-819d-a69c6960acd4",
    "title": "Wolff, Davis and Prosacco",
    "category": "START-HERE",
    "reward": { "xp": 1000 }
  },
  {
    "id": "1b35aa42-a763-4b20-b87c-bed21cbe8039",
    "title": "Online reviews Task for Windler - Ondricka",
    "category": "ONLINE-REVIEW",
    "reward": { "currencyCode": "GBP", "cash": 38.93, "xp": 327 },
    "location": {
      "address": "Donauweg, 1043 AJ, Amsterdam",
      "latitude": 52.394659,
      "longitude": 4.8370988
    },
    "appointmentDateTime": "2022-04-09T11:59:24.510Z"
  },
  {
    "id": "e48c84e7-367f-45d9-b4cd-b7e5ec19ac1c",
    "title": "Sales Task for Rutherford Inc",
    "category": "SALES",
    "reward": { "currencyCode": "GBP", "cash": 653.78, "xp": 848 },
    "location": {
      "address": "Westerdoksdijk, 1013 BX, Amsterdam",
      "latitude": 52.3856225,
      "longitude": 4.8928882
    },
    "appointmentDateTime": "2022-02-14T14:55:21.523Z"
  },
  {
    "id": "5f77ce74-8223-4fd0-95d4-4266d320d123",
    "title": "Mystery Task for Wiegand and Sons",
    "category": "MYSTERY",
    "reward": { "currencyCode": "GBP", "cash": 102.97, "xp": 924 },
    "location": {
      "address": "Krootstraat, 1104 KR, Amsterdam",
      "latitude": 52.3139338,
      "longitude": 4.977542
    },
    "appointmentDateTime": "2022-08-11T09:36:54.612Z"
  },
  {
    "id": "5f8d239b-9495-4a1a-a51e-87b429d45506",
    "title": "Zulauf Group",
    "category": "TRAINING",
    "reward": { "xp": 1000 },
    "location": {
      "address": "Westerdoksdijk, 1013 BX, Amsterdam",
      "latitude": 52.3856225,
      "longitude": 4.8928882
    }
  },
  {
    "id": "e103ac91-adb4-45da-a9ad-c52d6f7e731f",
    "title": "Merchandising Task for Witting - Johnson",
    "category": "MERCHANDISING",
    "reward": { "currencyCode": "GBP", "cash": 244.21, "xp": 90 },
    "location": {
      "address": "Westerdoksdijk, 1013 BX, Amsterdam",
      "latitude": 52.3856225,
      "longitude": 4.8928882
    },
    "appointmentDateTime": "2022-09-25T19:18:21.594Z"
  },
  {
    "id": "f6b2e879-45f3-46ad-89ef-c2af3c4b3d59",
    "title": "Sales Task for Toy, O'Connell and Dietrich",
    "category": "SALES",
    "reward": { "currencyCode": "GBP", "cash": 585.74, "xp": 762 },
    "location": {
      "address": "Schaarweg, 1276 AE, Huizen",
      "latitude": 52.2949518,
      "longitude": 5.2496192
    }
  },
  {
    "id": "a2cb4c13-731f-464e-87fe-fad4af5394c2",
    "title": "Mystery Task for O'Keefe, Kiehn and Cronin",
    "category": "MYSTERY",
    "reward": { "currencyCode": "EUR", "cash": 169, "xp": 302 },
    "location": {
      "address": "Vliegenvangerlaan, 2566 RN, Den Haag",
      "latitude": 52.0767319,
      "longitude": 4.2483385
    }
  },
  {
    "id": "6a765168-d1c9-484f-a8b5-0c501a3a9845",
    "title": "Sales Task for Considine and Sons",
    "category": "SALES",
    "reward": { "currencyCode": "GBP", "cash": 590.76, "xp": 87 },
    "location": {
      "address": "Albert Heijn; Jodenbreestraat 21, Amsterdam",
      "latitude": 52.3688487,
      "longitude": 4.9035384
    }
  },
  {
    "id": "8c98a72c-1257-4734-8388-34b36cf8354e",
    "title": "Merchandising Task for Turner, Altenwerth and Dach",
    "category": "MERCHANDISING",
    "reward": { "currencyCode": "EUR", "cash": 295.08, "xp": 825 },
    "location": {
      "address": "Kanaalstraat, 1054 WZ, Amsterdam",
      "latitude": 52.3628334,
      "longitude": 4.866487
    }
  },
  {
    "id": "91c7a7ef-5c41-4ce3-84a4-7a9a8b63907f",
    "title": "Merchandising Task for Kilback Group",
    "category": "MERCHANDISING",
    "reward": { "currencyCode": "EUR", "cash": 435.64, "xp": 560 },
    "location": {
      "address": "Schiedamsedijk, 3134 KK, Vlaardingen",
      "latitude": 51.9087144,
      "longitude": 4.3646747
    },
    "appointmentDateTime": "2022-02-06T18:27:31.616Z"
  },
  {
    "id": "3cbd5c6e-456e-44d6-a704-174613de967d",
    "title": "Checks Task for Heidenreich and Sons",
    "category": "CHECKS",
    "reward": { "currencyCode": "EUR", "cash": 373.57, "xp": 350 },
    "location": {
      "address": "Kiekendiefhorst, 2317 AD, Leiden",
      "latitude": 52.1726879,
      "longitude": 4.5081376
    },
    "appointmentDateTime": "2022-05-28T20:16:50.822Z"
  },
  {
    "id": "0dacd3da-1ae9-45c4-bbc2-53be70aa7376",
    "title": "Couch Task for Rodriguez - Ledner",
    "category": "COUCH",
    "reward": { "currencyCode": "EUR", "cash": 368.74, "xp": 152 },
    "location": {
      "address": "Schiedamsedijk, 3134 KK, Vlaardingen",
      "latitude": 51.9087144,
      "longitude": 4.3646747
    },
    "appointmentDateTime": "2022-04-08T00:10:57.453Z"
  },
  {
    "id": "31630abc-270e-469e-877b-eab89f18c4ac",
    "title": "Merchandising Task for Swaniawski - Gottlieb",
    "category": "MERCHANDISING",
    "reward": { "currencyCode": "GBP", "cash": 716.1, "xp": 194 },
    "location": {
      "address": "Kanaalstraat, 1054 XG, Amsterdam",
      "latitude": 52.3606387,
      "longitude": 4.8575122
    },
    "appointmentDateTime": "2022-06-16T18:27:58.716Z"
  },
  {
    "id": "74155e38-2200-435c-af90-b6f35f133d3d",
    "title": "O'Kon - Heathcote",
    "category": "TRAINING",
    "reward": { "xp": 1000 },
    "location": {
      "address": "Schaarweg, 1276 AE, Huizen",
      "latitude": 52.2949518,
      "longitude": 5.2496192
    }
  },
  {
    "id": "c5db8ab4-b880-4435-a3ae-828a0526d0d1",
    "title": "Merchandising Task for Stiedemann, Leannon and Johns",
    "category": "MERCHANDISING",
    "reward": { "currencyCode": "EUR", "cash": 35.34, "xp": 780 },
    "location": {
      "address": "Vliegenvangerlaan, 2566 RN, Den Haag",
      "latitude": 52.0767319,
      "longitude": 4.2483385
    },
    "appointmentDateTime": "2022-12-26T07:41:25.039Z"
  },
  {
    "id": "35325552-4afc-4966-a99b-684b0e92f832",
    "title": "Checks Task for Collins - Swift",
    "category": "CHECKS",
    "reward": { "currencyCode": "GBP", "cash": 591.89, "xp": 81 },
    "location": {
      "address": "Wilhelminastraat, 1015 RL, Amsterdam",
      "latitude": 52.3612447,
      "longitude": 4.862535
    }
  },
  {
    "id": "42674244-b6e3-42ea-936a-a3a5723cf5c2",
    "title": "Purchase Task for Roberts - Wisoky",
    "category": "PURCHASE",
    "reward": { "currencyCode": "EUR", "cash": 992.26, "xp": 105 },
    "location": {
      "address": "Willem de Zwijgerweg, 5684 SL, Best",
      "latitude": 51.5031407,
      "longitude": 5.3923573
    }
  },
  {
    "id": "48a138dd-15e4-4f13-9234-225d8804e6ca",
    "title": "Shanahan and Sons",
    "category": "START-HERE",
    "reward": { "xp": 1000 }
  },
  {
    "id": "3710489a-1e9c-49b0-ab33-83f2562dd965",
    "title": "Mystery Task for Veum - Murray",
    "category": "MYSTERY",
    "reward": { "currencyCode": "GBP", "cash": 346.81, "xp": 540 },
    "location": {
      "address": "Kinkerstraat, 1053 DC, Amsterdam",
      "latitude": 52.3649521,
      "longitude": 4.8628216
    },
    "appointmentDateTime": "2022-04-07T17:13:00.819Z"
  },
  {
    "id": "947fdf91-6c1f-421c-b9e6-f5c9d104eb33",
    "title": "Purchase Task for Waters LLC",
    "category": "PURCHASE",
    "reward": { "currencyCode": "GBP", "cash": 359.69, "xp": 765 },
    "location": {
      "address": "Kanaalstraat, 1054 XG, Amsterdam",
      "latitude": 52.3606387,
      "longitude": 4.8575122
    },
    "appointmentDateTime": "2022-10-17T07:24:26.563Z"
  },
  {
    "id": "0f0c122f-75cf-4b25-86aa-dbc1b753a62f",
    "title": "Checks Task for Torp - Sporer",
    "category": "CHECKS",
    "reward": { "currencyCode": "GBP", "cash": 902.16, "xp": 171 },
    "location": {
      "address": "Charlotte van Bourbonhof, 5611 HZ, Eindhoven",
      "latitude": 51.4370533,
      "longitude": 5.4704999
    }
  },
  {
    "id": "bed0af25-e9f9-405b-994f-763004212979",
    "title": "Online reviews Task for Murazik, Rogahn and Prosacco",
    "category": "ONLINE-REVIEW",
    "reward": { "currencyCode": "GBP", "cash": 518.59, "xp": 316 },
    "location": {
      "address": "Gagelveld, 5541 GP, Reusel",
      "latitude": 51.3696168,
      "longitude": 5.1618537
    }
  },
  {
    "id": "57d76491-aadf-41db-b787-f627307ee179",
    "title": "Outdoor Task for O'Reilly - Rice",
    "category": "OUTDOOR-CHECK",
    "reward": { "currencyCode": "EUR", "cash": 236.62, "xp": 236 },
    "location": {
      "address": "Raadhuislaan, 9665 KD, Oude Pekela",
      "latitude": 53.104558,
      "longitude": 7.0072942
    },
    "appointmentDateTime": "2022-02-06T08:26:58.583Z"
  },
  {
    "id": "b8981b9b-c02d-43f7-a534-139b83993a70",
    "title": "Outdoor Task for Brekke Group",
    "category": "OUTDOOR-CHECK",
    "reward": { "currencyCode": "EUR", "cash": 766.33, "xp": 509 },
    "location": {
      "address": "Westerdok, 1013 BH, Amsterdam",
      "latitude": 52.3834939,
      "longitude": 4.8916505
    }
  },
  {
    "id": "98a094ee-9f53-4e43-81f1-bad7d7f74246",
    "title": "Towne, Abbott and Pagac",
    "category": "START-HERE",
    "reward": { "xp": 1000 }
  },
  {
    "id": "6bc83513-fef5-43de-ab06-6be245331ea4",
    "title": "Other Task for Schultz - Bailey",
    "category": "OTHER",
    "reward": { "currencyCode": "EUR", "cash": 150.21, "xp": 782 },
    "location": {
      "address": "Amsterdamsestraatweg 410, 3551 CX Utrecht, Netherlands",
      "latitude": 52.1040889,
      "longitude": 5.0938376
    },
    "appointmentDateTime": "2022-12-10T04:31:23.997Z"
  },
  {
    "id": "e5080bb7-8877-42de-9305-0797a9fc037e",
    "title": "Checks Task for O'Reilly, Lynch and Collier",
    "category": "CHECKS",
    "reward": { "currencyCode": "EUR", "cash": 745.22, "xp": 821 },
    "location": {
      "address": "Vliegenvangerlaan, 2566 RN, Den Haag",
      "latitude": 52.0767319,
      "longitude": 4.2483385
    }
  },
  {
    "id": "cfbc1cfc-a1e4-4517-ab2c-380e6098f56f",
    "title": "Gibson, Casper and Donnelly",
    "category": "TRAINING",
    "reward": { "xp": 1000 },
    "location": {
      "address": "Albert Heijn; Jodenbreestraat 21, Amsterdam",
      "latitude": 52.3688487,
      "longitude": 4.9035384
    }
  },
  {
    "id": "408302d0-2c0f-4afc-8864-e76ddc79ae04",
    "title": "Outdoor Task for Cronin - Rogahn",
    "category": "OUTDOOR-CHECK",
    "reward": { "currencyCode": "GBP", "cash": 167.63, "xp": 162 },
    "location": {
      "address": "Taalstraat, 5261 BE, Vught",
      "latitude": 51.6671726,
      "longitude": 5.294402
    },
    "appointmentDateTime": "2022-05-26T09:31:14.185Z"
  },
  {
    "id": "84bdd546-8226-4455-9037-820c67830049",
    "title": "Other Task for Emmerich - Conn",
    "category": "OTHER",
    "reward": { "currencyCode": "GBP", "cash": 197.93, "xp": 830 },
    "location": {
      "address": "Kanaalstraat, 1054 WZ, Amsterdam",
      "latitude": 52.3628334,
      "longitude": 4.866487
    },
    "appointmentDateTime": "2022-05-08T21:15:24.005Z"
  },
  {
    "id": "b37524b6-d784-4044-8d35-e13c9eed37b1",
    "title": "Sales Task for Smith and Sons",
    "category": "SALES",
    "reward": { "currencyCode": "EUR", "cash": 506.77, "xp": 925 },
    "location": {
      "address": "Vliegenvangerlaan, 2566 RN, Den Haag",
      "latitude": 52.0767319,
      "longitude": 4.2483385
    }
  },
  {
    "id": "ab243baf-bece-449b-bb88-914f99889e79",
    "title": "Online reviews Task for Jacobi Group",
    "category": "ONLINE-REVIEW",
    "reward": { "currencyCode": "EUR", "cash": 656.91, "xp": 388 },
    "location": {
      "address": "Kanaalstraat 206 2, 1054XS Amsterdam",
      "latitude": 52.3608781,
      "longitude": 4.8578002
    },
    "appointmentDateTime": "2022-05-09T03:05:58.332Z"
  },
  {
    "id": "b64885db-b9bc-4302-8896-6f5bfb94a670",
    "title": "Couch Task for Treutel, Block and Maggio",
    "category": "COUCH",
    "reward": { "currencyCode": "EUR", "cash": 190.36, "xp": 432 },
    "location": {
      "address": "Schaarweg, 1276 AE, Huizen",
      "latitude": 52.2949518,
      "longitude": 5.2496192
    }
  },
  {
    "id": "55a6b81f-0033-413d-b86a-c04b519208b2",
    "title": "Online reviews Task for Wisoky - Dickinson",
    "category": "ONLINE-REVIEW",
    "reward": { "currencyCode": "GBP", "cash": 505.78, "xp": 900 },
    "location": {
      "address": "Amsterdamsestraatweg 410, 3551 CX Utrecht, Netherlands",
      "latitude": 52.1040889,
      "longitude": 5.0938376
    },
    "appointmentDateTime": "2022-04-19T22:40:12.127Z"
  },
  {
    "id": "f2e57ef9-4330-4ddc-bb12-32b458cfa6aa",
    "title": "Experience Task for Homenick - Kulas",
    "category": "EXPERIENCE",
    "reward": { "currencyCode": "GBP", "cash": 830.98, "xp": 820 },
    "location": {
      "address": "Kanaalstraat, 1054 XS, Amsterdam",
      "latitude": 52.3608781,
      "longitude": 4.8578002
    },
    "appointmentDateTime": "2022-05-10T07:15:45.884Z"
  },
  {
    "id": "bcd22ee6-6b7e-42ae-8ec5-2df756b4aaad",
    "title": "Other Task for Von - Waters",
    "category": "OTHER",
    "reward": { "currencyCode": "GBP", "cash": 157.04, "xp": 608 },
    "location": {
      "address": "Vliegenvangerlaan, 2566 RN, Den Haag",
      "latitude": 52.0767319,
      "longitude": 4.2483385
    },
    "appointmentDateTime": "2022-06-02T00:20:56.163Z"
  },
  {
    "id": "7b6d5ed5-f876-4bef-b7b3-1edcb33914ca",
    "title": "Other Task for Hoeger LLC",
    "category": "OTHER",
    "reward": { "currencyCode": "EUR", "cash": 293.23, "xp": 658 },
    "location": {
      "address": "Van Duylstraat, 3026 SL, Rotterdam",
      "latitude": 51.9114992,
      "longitude": 4.4432904
    }
  },
  {
    "id": "32536f3b-ee74-431e-b7c1-25590832428a",
    "title": "Experience Task for Schoen Group",
    "category": "EXPERIENCE",
    "reward": { "currencyCode": "EUR", "cash": 327.37, "xp": 647 },
    "location": {
      "address": "Albert Heijn; Jodenbreestraat 21, Amsterdam",
      "latitude": 52.3688487,
      "longitude": 4.9035384
    },
    "appointmentDateTime": "2022-09-24T13:00:33.223Z"
  },
  {
    "id": "4f4538d2-d90a-4b2e-8101-3aedad3a43f1",
    "title": "Online reviews Task for Medhurst - Buckridge",
    "category": "ONLINE-REVIEW",
    "reward": { "currencyCode": "EUR", "cash": 506.89, "xp": 893 },
    "location": {
      "address": "Kanaalstraat 206 2, 1054XS Amsterdam",
      "latitude": 52.3608781,
      "longitude": 4.8578002
    },
    "appointmentDateTime": "2022-10-07T02:57:46.112Z"
  },
  {
    "id": "11325873-a071-4bc4-aae8-7e84c3f72de0",
    "title": "Merchandising Task for Raynor Inc",
    "category": "MERCHANDISING",
    "reward": { "currencyCode": "GBP", "cash": 120.58, "xp": 541 },
    "location": {
      "address": "Van Duylstraat, 3026 SL, Rotterdam",
      "latitude": 51.9114992,
      "longitude": 4.4432904
    }
  },
  {
    "id": "3d39d769-f610-4e47-9fe9-1126964d9cfa",
    "title": "Mystery Task for Bogisich - Green",
    "category": "MYSTERY",
    "reward": { "currencyCode": "GBP", "cash": 257.43, "xp": 696 },
    "location": {
      "address": "Pieter Jacobszstraat, 1012HL, AMSTERDAM",
      "latitude": 52.3717662,
      "longitude": 4.8941016
    },
    "appointmentDateTime": "2022-10-22T22:30:31.671Z"
  },
  {
    "id": "247a0ddf-bd16-44fd-8e62-1a927890f9d9",
    "title": "Experience Task for Willms, Wolf and Stehr",
    "category": "EXPERIENCE",
    "reward": { "currencyCode": "EUR", "cash": 28.23, "xp": 602 },
    "location": {
      "address": "Albert Heijn; Jodenbreestraat 21, Amsterdam",
      "latitude": 52.3688487,
      "longitude": 4.9035384
    },
    "appointmentDateTime": "2022-12-28T17:36:09.254Z"
  },
  {
    "id": "39fc83e5-be22-4171-b2cc-7137ccf05b72",
    "title": "Experience Task for Moen and Sons",
    "category": "EXPERIENCE",
    "reward": { "currencyCode": "GBP", "cash": 337.96, "xp": 61 },
    "location": {
      "address": "Amsterdamsestraatweg 410, 3551 CX Utrecht, Netherlands",
      "latitude": 52.1040889,
      "longitude": 5.0938376
    },
    "appointmentDateTime": "2023-01-09T02:12:24.556Z"
  },
  {
    "id": "f843253b-4fc6-4761-940d-feba3a664064",
    "title": "Padberg, Abbott and Corkery",
    "category": "START-HERE",
    "reward": { "xp": 1000 }
  },
  {
    "id": "8201198f-cd83-4709-b125-3d377d5c6874",
    "title": "Will Group",
    "category": "START-HERE",
    "reward": { "xp": 1000 }
  },
  {
    "id": "382b83b3-15b4-49a3-8e06-e9e280148b9f",
    "title": "Sales Task for Williamson Inc",
    "category": "SALES",
    "reward": { "currencyCode": "GBP", "cash": 545.87, "xp": 55 },
    "location": {
      "address": "Schaarweg, 1276 AE, Huizen",
      "latitude": 52.2949518,
      "longitude": 5.2496192
    },
    "appointmentDateTime": "2022-08-15T01:36:14.738Z"
  },
  {
    "id": "94a169a7-6280-4a6d-ac43-f54bd91b8140",
    "title": "Sales Task for Macejkovic, Nolan and Feeney",
    "category": "SALES",
    "reward": { "currencyCode": "GBP", "cash": 657.25, "xp": 23 },
    "location": {
      "address": "Kanaalstraat 206 2, 1054XS Amsterdam",
      "latitude": 52.3608781,
      "longitude": 4.8578002
    }
  },
  {
    "id": "09a27304-a158-4b3c-b435-d574ccd2df58",
    "title": "Lang - Wyman",
    "category": "TRAINING",
    "reward": { "xp": 1000 },
    "location": {
      "address": "Westerdoksdijk, 1013 BX, Amsterdam",
      "latitude": 52.3856225,
      "longitude": 4.8928882
    }
  },
  {
    "id": "e465073c-c186-4c79-a9b1-5ab67e2a595e",
    "title": "Purchase Task for Dickens, O'Connell and Romaguera",
    "category": "PURCHASE",
    "reward": { "currencyCode": "EUR", "cash": 381.5, "xp": 608 },
    "location": {
      "address": "Donauweg, 1043 AJ, Amsterdam",
      "latitude": 52.394659,
      "longitude": 4.8370988
    },
    "appointmentDateTime": "2022-03-17T17:57:20.467Z"
  },
  {
    "id": "20b0ca56-657d-4f12-afb6-f77496f85d17",
    "title": "Experience Task for Daniel, Botsford and Zulauf",
    "category": "EXPERIENCE",
    "reward": { "currencyCode": "GBP", "cash": 716.45, "xp": 133 },
    "location": {
      "address": "Kanaalstraat 206, 1054XS Amsterdam",
      "latitude": 52.3608781,
      "longitude": 4.8578002
    },
    "appointmentDateTime": "2023-01-12T18:48:42.759Z"
  },
  {
    "id": "cabeaef7-6e1f-4b1d-91a3-d093cfb9a58b",
    "title": "Purchase Task for Mosciski and Sons",
    "category": "PURCHASE",
    "reward": { "currencyCode": "EUR", "cash": 714.7, "xp": 586 },
    "location": {
      "address": "Schaarweg, 1276 AE, Huizen",
      "latitude": 52.2949518,
      "longitude": 5.2496192
    }
  },
  {
    "id": "8d6002b9-fba1-4105-947e-2026576257b1",
    "title": "Experience Task for Lockman Inc",
    "category": "EXPERIENCE",
    "reward": { "currencyCode": "EUR", "cash": 182.76, "xp": 920 },
    "location": {
      "address": "Gagelveld, 5541 GP, Reusel",
      "latitude": 51.3696168,
      "longitude": 5.1618537
    }
  },
  {
    "id": "9eae9bec-8f7c-4b58-accc-fd7099219291",
    "title": "Outdoor Task for Lakin - Kirlin",
    "category": "OUTDOOR-CHECK",
    "reward": { "currencyCode": "EUR", "cash": 882.61, "xp": 744 },
    "location": {
      "address": "Van Duylstraat, 3026 SL, Rotterdam",
      "latitude": 51.9114992,
      "longitude": 4.4432904
    }
  },
  {
    "id": "5329e285-5706-4f81-b87c-3c4986069880",
    "title": "Experience Task for Larkin LLC",
    "category": "EXPERIENCE",
    "reward": { "currencyCode": "GBP", "cash": 983.88, "xp": 675 },
    "location": {
      "address": "Kanaalstraat 206, 1054XS Amsterdam",
      "latitude": 52.3608781,
      "longitude": 4.8578002
    }
  },
  {
    "id": "6ddbf053-2f65-4581-8109-1c53dbd4ca7c",
    "title": "Other Task for Senger, Erdman and Considine",
    "category": "OTHER",
    "reward": { "currencyCode": "EUR", "cash": 140.24, "xp": 780 },
    "location": {
      "address": "Pieter Jacobszstraat, 1012HL, AMSTERDAM",
      "latitude": 52.3717662,
      "longitude": 4.8941016
    },
    "appointmentDateTime": "2022-01-30T06:25:06.899Z"
  },
  {
    "id": "175e63cc-3b37-4c9e-8f57-265ebfd330df",
    "title": "Sales Task for Hettinger and Sons",
    "category": "SALES",
    "reward": { "currencyCode": "EUR", "cash": 128.36, "xp": 632 },
    "location": {
      "address": "Raadhuislaan, 9665 KD, Oude Pekela",
      "latitude": 53.104558,
      "longitude": 7.0072942
    },
    "appointmentDateTime": "2022-08-04T23:16:41.122Z"
  },
  {
    "id": "59a898aa-580c-43a6-b6d0-d55243208946",
    "title": "Purchase Task for Spinka - Homenick",
    "category": "PURCHASE",
    "reward": { "currencyCode": "EUR", "cash": 936.56, "xp": 431 },
    "location": {
      "address": "Westerdoksdijk, 1013AD, Amsterdam",
      "latitude": 52.3872679,
      "longitude": 4.892376
    }
  },
  {
    "id": "4da5d929-dc5b-43f6-acfd-ffe011001132",
    "title": "Mystery Task for Reichel, Schaden and Pagac",
    "category": "MYSTERY",
    "reward": { "currencyCode": "GBP", "cash": 94.09, "xp": 847 },
    "location": {
      "address": "Kanaalstraat 206 2, 1054XS Amsterdam",
      "latitude": 52.3608781,
      "longitude": 4.8578002
    }
  },
  {
    "id": "aadbfffc-91fd-45a4-b353-ca3f16517069",
    "title": "Experience Task for Boehm, Barton and Carroll",
    "category": "EXPERIENCE",
    "reward": { "currencyCode": "GBP", "cash": 903.02, "xp": 288 },
    "location": {
      "address": "Kanaalstraat 206, 1054XS Amsterdam",
      "latitude": 52.3608781,
      "longitude": 4.8578002
    },
    "appointmentDateTime": "2022-10-17T20:41:09.157Z"
  },
  {
    "id": "de29a7ef-0c99-4eba-bb60-41ca63de50b7",
    "title": "King, Kshlerin and Mosciski",
    "category": "TRAINING",
    "reward": { "xp": 1000 },
    "location": {
      "address": "Westerdoksdijk, 1013 BX, Amsterdam",
      "latitude": 52.3856225,
      "longitude": 4.8928882
    }
  },
  {
    "id": "a5c72372-724b-4330-a308-3957927329c5",
    "title": "Merchandising Task for Pagac - Hansen",
    "category": "MERCHANDISING",
    "reward": { "currencyCode": "EUR", "cash": 911.79, "xp": 847 },
    "location": {
      "address": "Kanaalstraat, 1054 WZ, Amsterdam",
      "latitude": 52.3628334,
      "longitude": 4.866487
    }
  },
  {
    "id": "d22a8190-f942-40fd-80cc-84a57c477144",
    "title": "Mystery Task for Jenkins Inc",
    "category": "MYSTERY",
    "reward": { "currencyCode": "EUR", "cash": 782.96, "xp": 56 },
    "location": {
      "address": "Kanaalstraat, 1054 XS, Amsterdam",
      "latitude": 52.3608781,
      "longitude": 4.8578002
    },
    "appointmentDateTime": "2022-06-25T03:52:44.360Z"
  },
  {
    "id": "a1853c9f-1f52-4ad8-bdd4-63ab362ca35e",
    "title": "Gutkowski - Larson",
    "category": "START-HERE",
    "reward": { "xp": 1000 }
  },
  {
    "id": "c0159da8-e047-44ea-a70c-ec2f85520104",
    "title": "Outdoor Task for King Inc",
    "category": "OUTDOOR-CHECK",
    "reward": { "currencyCode": "GBP", "cash": 897.12, "xp": 429 },
    "location": {
      "address": "Westerdok, 1013 BH, Amsterdam",
      "latitude": 52.3834939,
      "longitude": 4.8916505
    }
  },
  {
    "id": "5af1e79c-9621-4912-8cff-1f06c676e949",
    "title": "Merchandising Task for Franecki - Hahn",
    "category": "MERCHANDISING",
    "reward": { "currencyCode": "EUR", "cash": 109.75, "xp": 998 },
    "location": {
      "address": "Krootstraat, 1104 KR, Amsterdam",
      "latitude": 52.3139338,
      "longitude": 4.977542
    },
    "appointmentDateTime": "2022-01-28T23:21:05.580Z"
  },
  {
    "id": "9dc1e52a-4d63-471c-a74b-20cc7442e5fd",
    "title": "Mystery Task for Lueilwitz - Kulas",
    "category": "MYSTERY",
    "reward": { "currencyCode": "GBP", "cash": 115.34, "xp": 217 },
    "location": {
      "address": "StreetThatDoesNotExist, 1013AD, CityThatDoesNotExist",
      "latitude": 52.3649521,
      "longitude": 4.862821599999
    },
    "appointmentDateTime": "2022-04-19T15:37:31.617Z"
  },
  {
    "id": "8e4b53e6-9390-41f9-aea6-c7d456401163",
    "title": "Merchandising Task for Corkery Group",
    "category": "MERCHANDISING",
    "reward": { "currencyCode": "GBP", "cash": 859.61, "xp": 834 },
    "location": {
      "address": "Kanaalstraat 206 2, 1054XS Amsterdam",
      "latitude": 52.3608781,
      "longitude": 4.8578002
    },
    "appointmentDateTime": "2022-04-18T08:50:51.090Z"
  },
  {
    "id": "e50c6f78-3ca7-4d93-9c91-263514a598f5",
    "title": "Other Task for Cummings - Spencer",
    "category": "OTHER",
    "reward": { "currencyCode": "EUR", "cash": 137.11, "xp": 172 },
    "location": {
      "address": "Kanaalstraat, 1054 XG, Amsterdam",
      "latitude": 52.3606387,
      "longitude": 4.8575122
    },
    "appointmentDateTime": "2022-08-25T20:13:56.104Z"
  },
  {
    "id": "b7250555-fc25-4005-b855-5b473e56885b",
    "title": "Couch Task for Kassulke - Durgan",
    "category": "COUCH",
    "reward": { "currencyCode": "GBP", "cash": 82.5, "xp": 815 },
    "location": {
      "address": "Albert Heijn; Jodenbreestraat 21, Amsterdam",
      "latitude": 52.3688487,
      "longitude": 4.9035384
    },
    "appointmentDateTime": "2022-12-28T08:03:52.150Z"
  },
  {
    "id": "e3036daa-ed83-4670-b00a-71b0a1d3df4f",
    "title": "Botsford, Bartoletti and Dach",
    "category": "TRAINING",
    "reward": { "xp": 1000 }
  },
  {
    "id": "cfc51b91-3ee7-4c1d-87ea-aa85665bbad8",
    "title": "Purchase Task for Ankunding LLC",
    "category": "PURCHASE",
    "reward": { "currencyCode": "EUR", "cash": 521.33, "xp": 159 },
    "location": {
      "address": "Taalstraat, 5261 BE, Vught",
      "latitude": 51.6671726,
      "longitude": 5.294402
    },
    "appointmentDateTime": "2022-08-04T01:46:46.814Z"
  },
  {
    "id": "0dcdb840-cd50-41d7-b3ac-10ab8a3cf7d3",
    "title": "Yost Group",
    "category": "START-HERE",
    "reward": { "xp": 1000 }
  },
  {
    "id": "bc8fba89-f2a8-41b9-be9e-6e4d27732767",
    "title": "Merchandising Task for Hammes, Hilll and Davis",
    "category": "MERCHANDISING",
    "reward": { "currencyCode": "EUR", "cash": 197.23, "xp": 399 },
    "location": {
      "address": "Kiekendiefhorst, 2317 AD, Leiden",
      "latitude": 52.1726879,
      "longitude": 4.5081376
    },
    "appointmentDateTime": "2022-04-22T08:41:47.091Z"
  },
  {
    "id": "02e276e9-1148-4fb2-9d10-e852a9e51eca",
    "title": "Checks Task for Rolfson, Padberg and Botsford",
    "category": "CHECKS",
    "reward": { "currencyCode": "GBP", "cash": 899.08, "xp": 891 },
    "location": {
      "address": "Westerdoksdijk, 1013AD, Amsterdam",
      "latitude": 52.3872679,
      "longitude": 4.892376
    },
    "appointmentDateTime": "2022-03-07T16:20:07.747Z"
  },
  {
    "id": "49f6efea-2384-4d73-9925-30a39a50827c",
    "title": "Harber, Cruickshank and Marks",
    "category": "TRAINING",
    "reward": { "xp": 1000 },
    "location": {
      "address": "Wilhelminastraat, 1015 RL, Amsterdam",
      "latitude": 52.3612447,
      "longitude": 4.862535
    }
  },
  {
    "id": "bc84ca69-9650-4899-bc5c-007d8f5dbc1e",
    "title": "Lemke, Daniel and Luettgen",
    "category": "START-HERE",
    "reward": { "xp": 1000 }
  },
  {
    "id": "1e66242e-702e-4293-86a9-132b423eaf64",
    "title": "Sales Task for Borer Inc",
    "category": "SALES",
    "reward": { "currencyCode": "EUR", "cash": 766.93, "xp": 900 },
    "location": {
      "address": "Javaplein, 1095 CH, Amsterdam",
      "latitude": 52.3639074,
      "longitude": 4.9400926
    },
    "appointmentDateTime": "2022-03-24T04:36:28.205Z"
  },
  {
    "id": "6ee0ba18-8907-4cd0-9e07-c3cad000f9c4",
    "title": "Wintheiser Group",
    "category": "START-HERE",
    "reward": { "xp": 1000 }
  },
  {
    "id": "d052e926-6da0-42ed-a046-a42a7782189e",
    "title": "Couch Task for Rice, Abernathy and Kris",
    "category": "COUCH",
    "reward": { "currencyCode": "GBP", "cash": 566.7, "xp": 877 },
    "location": {
      "address": "Kanaalstraat 206, 1054XS Amsterdam",
      "latitude": 52.3608781,
      "longitude": 4.8578002
    }
  },
  {
    "id": "2b082799-d205-49ce-92e2-f637b7f082f6",
    "title": "Merchandising Task for Reichert Group",
    "category": "MERCHANDISING",
    "reward": { "currencyCode": "GBP", "cash": 544.47, "xp": 194 },
    "location": {
      "address": "Schaarweg, 1276 AE, Huizen",
      "latitude": 52.2949518,
      "longitude": 5.2496192
    },
    "appointmentDateTime": "2023-01-01T23:56:14.571Z"
  },
  {
    "id": "3f1800c5-13f0-4c9b-8585-09d1676fcde6",
    "title": "Experience Task for Wintheiser LLC",
    "category": "EXPERIENCE",
    "reward": { "currencyCode": "GBP", "cash": 751.45, "xp": 984 },
    "location": {
      "address": "Kanaalstraat 206, 1054XS Amsterdam",
      "latitude": 52.3608781,
      "longitude": 4.8578002
    },
    "appointmentDateTime": "2022-04-13T19:32:37.445Z"
  },
  {
    "id": "a24f124b-5ff5-4ba0-97b4-4d6ae22f4051",
    "title": "Other Task for Price LLC",
    "category": "OTHER",
    "reward": { "currencyCode": "GBP", "cash": 346, "xp": 190 },
    "location": {
      "address": "Kinkerstraat, 1053 DC, Amsterdam",
      "latitude": 52.3649521,
      "longitude": 4.8628216
    },
    "appointmentDateTime": "2022-05-01T01:12:25.293Z"
  },
  {
    "id": "57cc6e78-62cb-4e6d-9e21-d3f840135ecc",
    "title": "Merchandising Task for Corkery, Monahan and Ferry",
    "category": "MERCHANDISING",
    "reward": { "currencyCode": "GBP", "cash": 481.46, "xp": 35 },
    "location": {
      "address": "Albert Heijn; Jodenbreestraat 21, Amsterdam",
      "latitude": 52.3688487,
      "longitude": 4.9035384
    },
    "appointmentDateTime": "2022-06-11T14:33:43.079Z"
  },
  {
    "id": "a648d4a0-67c2-4f63-acb6-3c9f8522adb1",
    "title": "Sales Task for Cummerata - Bogisich",
    "category": "SALES",
    "reward": { "currencyCode": "GBP", "cash": 470.08, "xp": 883 },
    "location": {
      "address": "Kiekendiefhorst, 2317 AD, Leiden",
      "latitude": 52.1726879,
      "longitude": 4.5081376
    }
  },
  {
    "id": "dfdbba83-c365-4fb6-a457-69eb375cb9b4",
    "title": "Purchase Task for Yundt, Corwin and Kuphal",
    "category": "PURCHASE",
    "reward": { "currencyCode": "GBP", "cash": 456.45, "xp": 273 },
    "location": {
      "address": "Westerdoksdijk, 1013 BX, Amsterdam",
      "latitude": 52.3856225,
      "longitude": 4.8928882
    },
    "appointmentDateTime": "2022-09-01T06:41:49.944Z"
  },
  {
    "id": "cbaaf588-8875-448a-98f4-2246c07c6df6",
    "title": "Merchandising Task for Mohr and Sons",
    "category": "MERCHANDISING",
    "reward": { "currencyCode": "GBP", "cash": 481.82, "xp": 760 },
    "location": {
      "address": "Kiekendiefhorst, 2317 AD, Leiden",
      "latitude": 52.1726879,
      "longitude": 4.5081376
    }
  },
  {
    "id": "af622f98-24e3-4edc-be66-025cbc9ecbae",
    "title": "Online reviews Task for Ruecker LLC",
    "category": "ONLINE-REVIEW",
    "reward": { "currencyCode": "EUR", "cash": 178.99, "xp": 240 },
    "location": {
      "address": "Westerdoksdijk, 1013 BX, Amsterdam",
      "latitude": 52.3856225,
      "longitude": 4.8928882
    }
  },
  {
    "id": "943214d0-4a22-4778-8d91-1679c404edb6",
    "title": "Wolf - Walter",
    "category": "TRAINING",
    "reward": { "xp": 1000 },
    "location": {
      "address": "Albert Heijn; Jodenbreestraat 21, Amsterdam",
      "latitude": 52.3688487,
      "longitude": 4.9035384
    }
  },
  {
    "id": "3f1ea1f9-e0da-4e90-a493-9b0cbca2fd57",
    "title": "Merchandising Task for West, Fay and Hessel",
    "category": "MERCHANDISING",
    "reward": { "currencyCode": "EUR", "cash": 312.06, "xp": 670 },
    "location": {
      "address": "Westerdoksdijk, 1013AD, Amsterdam",
      "latitude": 52.3872679,
      "longitude": 4.892376
    },
    "appointmentDateTime": "2022-11-30T03:29:58.365Z"
  },
  {
    "id": "6293e933-b655-417e-91ea-de5833c7b60d",
    "title": "Merchandising Task for Olson, Legros and Medhurst",
    "category": "MERCHANDISING",
    "reward": { "currencyCode": "EUR", "cash": 368.31, "xp": 101 },
    "location": {
      "address": "Albert Heijn; Jodenbreestraat 21, Amsterdam",
      "latitude": 52.3688487,
      "longitude": 4.9035384
    }
  },
  {
    "id": "9c3ac29c-e86d-4018-bef4-84975e812d6f",
    "title": "Sales Task for Orn, Raynor and Senger",
    "category": "SALES",
    "reward": { "currencyCode": "GBP", "cash": 885.63, "xp": 895 },
    "location": {
      "address": "Van Duylstraat, 3026 SL, Rotterdam",
      "latitude": 51.9114992,
      "longitude": 4.4432904
    }
  },
  {
    "id": "802c4c2b-478b-4208-9a33-df4fd99002e4",
    "title": "Other Task for Block Inc",
    "category": "OTHER",
    "reward": { "currencyCode": "GBP", "cash": 357.23, "xp": 658 },
    "location": {
      "address": "Amsterdamsestraatweg 410, 3551 CX Utrecht, Netherlands",
      "latitude": 52.1040889,
      "longitude": 5.0938376
    }
  },
  {
    "id": "35829d20-5126-4657-8083-cba91b103a20",
    "title": "Merchandising Task for Mann and Sons",
    "category": "MERCHANDISING",
    "reward": { "currencyCode": "GBP", "cash": 748.19, "xp": 615 },
    "location": {
      "address": "Krootstraat, 1104 KR, Amsterdam",
      "latitude": 52.3139338,
      "longitude": 4.977542
    },
    "appointmentDateTime": "2022-03-18T04:19:23.907Z"
  },
  {
    "id": "63fed7f4-12dc-488c-be66-eb0e852b0004",
    "title": "Experience Task for Reichert, Kovacek and Kihn",
    "category": "EXPERIENCE",
    "reward": { "currencyCode": "GBP", "cash": 785.05, "xp": 13 },
    "location": {
      "address": "Vliegenvangerlaan, 2566 RN, Den Haag",
      "latitude": 52.0767319,
      "longitude": 4.2483385
    }
  },
  {
    "id": "21355df6-0227-413a-9d93-5ebdafae030c",
    "title": "Daugherty Group",
    "category": "START-HERE",
    "reward": { "xp": 1000 }
  },
  {
    "id": "faf23682-5df9-43a1-a7a9-ff59e0d03c45",
    "title": "Online reviews Task for Zulauf, Hahn and Runolfsson",
    "category": "ONLINE-REVIEW",
    "reward": { "currencyCode": "GBP", "cash": 578.13, "xp": 591 },
    "location": {
      "address": "Javaplein, 1095 CH, Amsterdam",
      "latitude": 52.3639074,
      "longitude": 4.9400926
    },
    "appointmentDateTime": "2022-03-27T01:54:03.265Z"
  },
  {
    "id": "f97f6e24-eb3d-4185-9a1c-51f4a93c389e",
    "title": "Merchandising Task for Haag - Zemlak",
    "category": "MERCHANDISING",
    "reward": { "currencyCode": "EUR", "cash": 314.62, "xp": 653 },
    "location": {
      "address": "Krootstraat, 1104 KR, Amsterdam",
      "latitude": 52.3139338,
      "longitude": 4.977542
    }
  },
  {
    "id": "5548d559-ef48-4cc0-ac13-bf44727bf921",
    "title": "Outdoor Task for Senger - Brakus",
    "category": "OUTDOOR-CHECK",
    "reward": { "currencyCode": "GBP", "cash": 942.73, "xp": 511 },
    "location": {
      "address": "Schaarweg, 1276 AE, Huizen",
      "latitude": 52.2949518,
      "longitude": 5.2496192
    }
  },
  {
    "id": "78bf194d-63a1-4c5b-a862-9e15dc7bf451",
    "title": "Sales Task for Bernhard and Sons",
    "category": "SALES",
    "reward": { "currencyCode": "GBP", "cash": 365.8, "xp": 577 },
    "location": {
      "address": "Donauweg, 1043 AJ, Amsterdam",
      "latitude": 52.394659,
      "longitude": 4.8370988
    }
  },
  {
    "id": "2ebf692c-30c2-4196-b0c7-878fc036ae8c",
    "title": "Outdoor Task for Rau - Windler",
    "category": "OUTDOOR-CHECK",
    "reward": { "currencyCode": "GBP", "cash": 301.26, "xp": 690 },
    "location": {
      "address": "Willem de Zwijgerweg, 5684 SL, Best",
      "latitude": 51.5031407,
      "longitude": 5.3923573
    },
    "appointmentDateTime": "2022-09-03T17:37:07.836Z"
  },
  {
    "id": "544cab04-5eb9-4b09-a64f-151e58a7da47",
    "title": "Checks Task for Mayert - Wolff",
    "category": "CHECKS",
    "reward": { "currencyCode": "GBP", "cash": 935.26, "xp": 583 },
    "location": {
      "address": "Willem de Zwijgerweg, 5684 SL, Best",
      "latitude": 51.5031407,
      "longitude": 5.3923573
    },
    "appointmentDateTime": "2022-08-22T01:46:31.012Z"
  },
  {
    "id": "ef26e1b5-dc4e-4ad1-af88-a1b34e6916ef",
    "title": "Couch Task for Mayer, Emard and Jakubowski",
    "category": "COUCH",
    "reward": { "currencyCode": "GBP", "cash": 158, "xp": 859 },
    "location": {
      "address": "Kanaalstraat 206, 1054XS Amsterdam",
      "latitude": 52.3608781,
      "longitude": 4.8578002
    },
    "appointmentDateTime": "2022-09-28T20:24:37.982Z"
  },
  {
    "id": "369df16d-0427-46bd-97e9-6fed8508286d",
    "title": "Other Task for Wyman, Doyle and Okuneva",
    "category": "OTHER",
    "reward": { "currencyCode": "GBP", "cash": 383.36, "xp": 314 },
    "location": {
      "address": "Schaarweg, 1276 AE, Huizen",
      "latitude": 52.2949518,
      "longitude": 5.2496192
    }
  },
  {
    "id": "4049d92f-cfbb-4fb8-982c-659b4dc079b0",
    "title": "Couch Task for Effertz LLC",
    "category": "COUCH",
    "reward": { "currencyCode": "GBP", "cash": 659.54, "xp": 485 },
    "location": {
      "address": "Vliegenvangerlaan, 2566 RN, Den Haag",
      "latitude": 52.0767319,
      "longitude": 4.2483385
    }
  },
  {
    "id": "16f9e113-4122-4d09-8026-c997c0c2a838",
    "title": "Couch Task for Glover, Wilkinson and Emmerich",
    "category": "COUCH",
    "reward": { "currencyCode": "GBP", "cash": 463.77, "xp": 624 },
    "location": {
      "address": "Krootstraat, 1104 KR, Amsterdam",
      "latitude": 52.3139338,
      "longitude": 4.977542
    }
  },
  {
    "id": "a8482cd0-4784-456a-a61e-ab815e1e5c19",
    "title": "Jenkins Group",
    "category": "TRAINING",
    "reward": { "xp": 1000 },
    "location": {
      "address": "Donauweg, 1043 AJ, Amsterdam",
      "latitude": 52.394659,
      "longitude": 4.8370988
    }
  },
  {
    "id": "cb4d685e-bd00-4c0a-978a-eda5908b75dd",
    "title": "Checks Task for Lynch LLC",
    "category": "CHECKS",
    "reward": { "currencyCode": "GBP", "cash": 647.47, "xp": 489 },
    "location": {
      "address": "Donauweg, 1043 AJ, Amsterdam",
      "latitude": 52.394659,
      "longitude": 4.8370988
    },
    "appointmentDateTime": "2022-10-20T20:35:14.947Z"
  },
  {
    "id": "e81e0ed8-7dc3-4bf2-9b99-6bbd2ea16fa4",
    "title": "Couch Task for Streich Group",
    "category": "COUCH",
    "reward": { "currencyCode": "EUR", "cash": 427.11, "xp": 902 },
    "location": {
      "address": "Kinkerstraat, 1053 DC, Amsterdam",
      "latitude": 52.3649521,
      "longitude": 4.8628216
    }
  },
  {
    "id": "5f8d4ccf-0b2e-4654-9ea9-93c2cee410cd",
    "title": "Sales Task for Parisian - Borer",
    "category": "SALES",
    "reward": { "currencyCode": "GBP", "cash": 738.65, "xp": 553 },
    "location": {
      "address": "Krootstraat, 1104 KR, Amsterdam",
      "latitude": 52.3139338,
      "longitude": 4.977542
    }
  },
  {
    "id": "710ef865-08c2-41e2-9bca-45b71cc685c0",
    "title": "Couch Task for Beer, Hansen and Bode",
    "category": "COUCH",
    "reward": { "currencyCode": "EUR", "cash": 59.05, "xp": 540 },
    "location": {
      "address": "Hoefblad, 8445 RN, Heerenveen",
      "latitude": 52.9425067,
      "longitude": 5.9254725
    }
  },
  {
    "id": "58cbb3bd-586f-448b-b3b6-6297a6d6ee6d",
    "title": "Outdoor Task for Daugherty - Kautzer",
    "category": "OUTDOOR-CHECK",
    "reward": { "currencyCode": "GBP", "cash": 975.67, "xp": 95 },
    "location": {
      "address": "Wilhelminastraat, 1015 RL, Amsterdam",
      "latitude": 52.3612447,
      "longitude": 4.862535
    },
    "appointmentDateTime": "2022-08-07T03:50:33.471Z"
  },
  {
    "id": "bab25c57-5c0d-45a1-95a1-d2327f9fcded",
    "title": "Mystery Task for Brakus LLC",
    "category": "MYSTERY",
    "reward": { "currencyCode": "EUR", "cash": 204.59, "xp": 492 },
    "location": {
      "address": "Westerdoksdijk, 1013AD, Amsterdam",
      "latitude": 52.3872679,
      "longitude": 4.892376
    }
  },
  {
    "id": "7057d5b1-01a6-447c-b050-50a9b75715f2",
    "title": "Purchase Task for Rogahn LLC",
    "category": "PURCHASE",
    "reward": { "currencyCode": "GBP", "cash": 424.03, "xp": 191 },
    "location": {
      "address": "Kanaalstraat 206, 1054XS Amsterdam",
      "latitude": 52.3608781,
      "longitude": 4.8578002
    },
    "appointmentDateTime": "2022-04-19T04:34:16.028Z"
  },
  {
    "id": "5b6e9e7d-9111-4272-aa54-3ad9dfe85e13",
    "title": "Experience Task for Haag, Gerhold and Howell",
    "category": "EXPERIENCE",
    "reward": { "currencyCode": "GBP", "cash": 99.27, "xp": 52 },
    "location": {
      "address": "Kanaalstraat, 1054 WZ, Amsterdam",
      "latitude": 52.3628334,
      "longitude": 4.866487
    },
    "appointmentDateTime": "2022-05-07T16:24:16.045Z"
  },
  {
    "id": "28bd87a4-3c7f-45ae-9fd0-7b243e0171f8",
    "title": "Merchandising Task for Hills, Rutherford and Harvey",
    "category": "MERCHANDISING",
    "reward": { "currencyCode": "GBP", "cash": 1.78, "xp": 116 },
    "location": {
      "address": "Gagelveld, 5541 GP, Reusel",
      "latitude": 51.3696168,
      "longitude": 5.1618537
    }
  },
  {
    "id": "8657e638-abda-4ff7-a0c1-56f201e0ce6e",
    "title": "O'Hara - Jaskolski",
    "category": "TRAINING",
    "reward": { "xp": 1000 },
    "location": {
      "address": "Raadhuislaan, 9665 KD, Oude Pekela",
      "latitude": 53.104558,
      "longitude": 7.0072942
    }
  },
  {
    "id": "e95ab308-7201-4d09-a22f-127a066e0006",
    "title": "Kris - Wuckert",
    "category": "START-HERE",
    "reward": { "xp": 1000 }
  },
  {
    "id": "353a4928-46e1-4fdf-989f-71a8ef69e6a5",
    "title": "Merchandising Task for Wilkinson, Trantow and Hermann",
    "category": "MERCHANDISING",
    "reward": { "currencyCode": "EUR", "cash": 611.83, "xp": 799 },
    "location": {
      "address": "Taalstraat, 5261 BE, Vught",
      "latitude": 51.6671726,
      "longitude": 5.294402
    },
    "appointmentDateTime": "2022-04-28T09:09:47.258Z"
  },
  {
    "id": "bba86836-7f9b-479c-91c9-1f9f50407b77",
    "title": "Other Task for Crooks Group",
    "category": "OTHER",
    "reward": { "currencyCode": "EUR", "cash": 604.53, "xp": 675 },
    "location": {
      "address": "Taalstraat, 5261 BE, Vught",
      "latitude": 51.6671726,
      "longitude": 5.294402
    }
  },
  {
    "id": "1fcd6b1d-eacd-4b0e-8bc9-1c6c8fe43062",
    "title": "Checks Task for Dickinson - Cassin",
    "category": "CHECKS",
    "reward": { "currencyCode": "GBP", "cash": 110.52, "xp": 157 },
    "location": {
      "address": "Kinkerstraat, 1053 DC, Amsterdam",
      "latitude": 52.3649521,
      "longitude": 4.8628216
    },
    "appointmentDateTime": "2022-12-21T11:44:01.321Z"
  },
  {
    "id": "73bb8d04-2bbe-4cee-ab55-ea67f9317700",
    "title": "Purchase Task for Dooley - Friesen",
    "category": "PURCHASE",
    "reward": { "currencyCode": "GBP", "cash": 273.05, "xp": 413 },
    "location": {
      "address": "Vliegenvangerlaan, 2566 RN, Den Haag",
      "latitude": 52.0767319,
      "longitude": 4.2483385
    }
  },
  {
    "id": "1f5e873e-5e55-4e93-bdb4-2d50a740e389",
    "title": "Merchandising Task for Johnston, Gleason and Flatley",
    "category": "MERCHANDISING",
    "reward": { "currencyCode": "GBP", "cash": 27.59, "xp": 246 },
    "location": {
      "address": "Kanaalstraat, 1054 XS, Amsterdam",
      "latitude": 52.3608781,
      "longitude": 4.8578002
    }
  },
  {
    "id": "d1661ba3-1a17-42c9-b342-ad3e1d9769b0",
    "title": "Online reviews Task for Mills, Cruickshank and Hayes",
    "category": "ONLINE-REVIEW",
    "reward": { "currencyCode": "GBP", "cash": 975.34, "xp": 748 },
    "location": {
      "address": "Krootstraat, 1104 KR, Amsterdam",
      "latitude": 52.3139338,
      "longitude": 4.977542
    },
    "appointmentDateTime": "2022-05-10T15:42:39.844Z"
  },
  {
    "id": "eef89729-dbf2-487d-bb83-c6e025eee498",
    "title": "Experience Task for Schiller, Shields and Fisher",
    "category": "EXPERIENCE",
    "reward": { "currencyCode": "GBP", "cash": 339.15, "xp": 236 },
    "location": {
      "address": "Kanaalstraat 206, 1054XS Amsterdam",
      "latitude": 52.3608781,
      "longitude": 4.8578002
    },
    "appointmentDateTime": "2023-01-05T00:50:59.857Z"
  },
  {
    "id": "8c9d9641-7a48-4140-8df4-a29721a66d83",
    "title": "Deckow - Little",
    "category": "START-HERE",
    "reward": { "xp": 1000 }
  },
  {
    "id": "50843a28-7de5-43b0-9bbb-82a89770084c",
    "title": "Merchandising Task for Swift - Paucek",
    "category": "MERCHANDISING",
    "reward": { "currencyCode": "GBP", "cash": 25.97, "xp": 875 },
    "location": {
      "address": "Vliegenvangerlaan, 2566 RN, Den Haag",
      "latitude": 52.0767319,
      "longitude": 4.2483385
    }
  },
  {
    "id": "a4847636-1daa-4a11-bcb6-488eb34ee83e",
    "title": "Purchase Task for Marks and Sons",
    "category": "PURCHASE",
    "reward": { "currencyCode": "GBP", "cash": 931.12, "xp": 302 },
    "location": {
      "address": "Donauweg, 1043 AJ, Amsterdam",
      "latitude": 52.394659,
      "longitude": 4.8370988
    },
    "appointmentDateTime": "2022-10-31T06:39:18.937Z"
  },
  {
    "id": "06f84f3b-1020-4ff5-91e2-cae6130830d2",
    "title": "Purchase Task for McClure and Sons",
    "category": "PURCHASE",
    "reward": { "currencyCode": "EUR", "cash": 422.07, "xp": 495 },
    "location": {
      "address": "Willem de Zwijgerweg, 5684 SL, Best",
      "latitude": 51.5031407,
      "longitude": 5.3923573
    }
  },
  {
    "id": "6608cd43-bf04-4663-b5f7-afd8a7ecd41e",
    "title": "Outdoor Task for Fahey - Quigley",
    "category": "OUTDOOR-CHECK",
    "reward": { "currencyCode": "GBP", "cash": 198.61, "xp": 807 },
    "location": {
      "address": "Schaarweg, 1276 AE, Huizen",
      "latitude": 52.2949518,
      "longitude": 5.2496192
    },
    "appointmentDateTime": "2022-11-17T12:52:19.288Z"
  },
  {
    "id": "061eb8ff-7378-43a7-99aa-2be1248ffadf",
    "title": "Online reviews Task for Roob - Beer",
    "category": "ONLINE-REVIEW",
    "reward": { "currencyCode": "EUR", "cash": 874.67, "xp": 368 },
    "location": {
      "address": "Vliegenvangerlaan, 2566 RN, Den Haag",
      "latitude": 52.0767319,
      "longitude": 4.2483385
    }
  },
  {
    "id": "7c022509-8079-4ad6-8611-1949b29ff0a6",
    "title": "Sales Task for Aufderhar, Barton and Pagac",
    "category": "SALES",
    "reward": { "currencyCode": "GBP", "cash": 569.09, "xp": 58 },
    "location": {
      "address": "Kanaalstraat 206, 1054XS Amsterdam",
      "latitude": 52.3608781,
      "longitude": 4.8578002
    },
    "appointmentDateTime": "2022-07-17T01:48:22.750Z"
  },
  {
    "id": "9eb9ae5e-e065-40f0-9712-3a8e5d3462de",
    "title": "Mystery Task for Ankunding Group",
    "category": "MYSTERY",
    "reward": { "currencyCode": "EUR", "cash": 442.63, "xp": 11 },
    "location": {
      "address": "Hoefblad, 8445 RN, Heerenveen",
      "latitude": 52.9425067,
      "longitude": 5.9254725
    },
    "appointmentDateTime": "2022-03-05T22:08:37.036Z"
  },
  {
    "id": "c1483b54-9d3b-407d-911c-5be89234cd31",
    "title": "Willms LLC",
    "category": "START-HERE",
    "reward": { "xp": 1000 }
  },
  {
    "id": "61020502-6b2f-4748-b781-da8586557e2e",
    "title": "Experience Task for Block Group",
    "category": "EXPERIENCE",
    "reward": { "currencyCode": "EUR", "cash": 921.94, "xp": 224 },
    "location": {
      "address": "Westerdoksdijk, 1013 BX, Amsterdam",
      "latitude": 52.3856225,
      "longitude": 4.8928882
    }
  },
  {
    "id": "986b5b2f-839a-44e4-a4e2-811713f6d2e3",
    "title": "Merchandising Task for Moore and Sons",
    "category": "MERCHANDISING",
    "reward": { "currencyCode": "GBP", "cash": 259.43, "xp": 38 },
    "location": {
      "address": "Kanaalstraat 206 2, 1054XS Amsterdam",
      "latitude": 52.3608781,
      "longitude": 4.8578002
    },
    "appointmentDateTime": "2022-06-20T18:05:16.150Z"
  },
  {
    "id": "eec88ff5-f8c5-470d-88fb-d59a4fb6b92e",
    "title": "Other Task for Kerluke - Bahringer",
    "category": "OTHER",
    "reward": { "currencyCode": "EUR", "cash": 738.19, "xp": 890 },
    "location": {
      "address": "Donauweg, 1043 AJ, Amsterdam",
      "latitude": 52.394659,
      "longitude": 4.8370988
    },
    "appointmentDateTime": "2022-10-14T00:38:15.609Z"
  },
  {
    "id": "7312bf44-8db0-4918-ab32-92732d040b7a",
    "title": "Online reviews Task for Wehner Group",
    "category": "ONLINE-REVIEW",
    "reward": { "currencyCode": "EUR", "cash": 697.86, "xp": 671 },
    "location": {
      "address": "Krootstraat, 1104 KR, Amsterdam",
      "latitude": 52.3139338,
      "longitude": 4.977542
    },
    "appointmentDateTime": "2022-08-28T23:43:15.792Z"
  },
  {
    "id": "4dbf2753-797e-46b2-a3dd-7998c13fcbd2",
    "title": "Online reviews Task for Rodriguez, Feil and Paucek",
    "category": "ONLINE-REVIEW",
    "reward": { "currencyCode": "GBP", "cash": 585.58, "xp": 22 },
    "location": {
      "address": "Kinkerstraat, 1053 DC, Amsterdam",
      "latitude": 52.3649521,
      "longitude": 4.8628216
    }
  },
  {
    "id": "4126d92a-3f2a-4757-b029-fac0ab474114",
    "title": "Online reviews Task for Schroeder, Cronin and Bogan",
    "category": "ONLINE-REVIEW",
    "reward": { "currencyCode": "GBP", "cash": 705.09, "xp": 343 },
    "location": {
      "address": "Javaplein, 1095 CH, Amsterdam",
      "latitude": 52.3639074,
      "longitude": 4.9400926
    }
  },
  {
    "id": "c7621609-75c9-46b8-99da-f75c8b515b55",
    "title": "Experience Task for Murazik, Kuhlman and Doyle",
    "category": "EXPERIENCE",
    "reward": { "currencyCode": "EUR", "cash": 350.58, "xp": 877 },
    "location": {
      "address": "Kiekendiefhorst, 2317 AD, Leiden",
      "latitude": 52.1726879,
      "longitude": 4.5081376
    }
  },
  {
    "id": "011d8944-e59e-4622-81aa-e83d6a0fa706",
    "title": "Bartell, Johnston and Jacobs",
    "category": "TRAINING",
    "reward": { "xp": 1000 },
    "location": {
      "address": "Vliegenvangerlaan, 2566 RN, Den Haag",
      "latitude": 52.0767319,
      "longitude": 4.2483385
    }
  },
  {
    "id": "699f5be7-5775-423e-bba7-86a3dc914661",
    "title": "Other Task for Kiehn - Denesik",
    "category": "OTHER",
    "reward": { "currencyCode": "EUR", "cash": 403.26, "xp": 169 },
    "location": {
      "address": "Taalstraat, 5261 BE, Vught",
      "latitude": 51.6671726,
      "longitude": 5.294402
    },
    "appointmentDateTime": "2022-05-07T18:38:38.832Z"
  },
  {
    "id": "85b08a28-c86b-4c25-9048-7f95bc28229b",
    "title": "Outdoor Task for Ritchie and Sons",
    "category": "OUTDOOR-CHECK",
    "reward": { "currencyCode": "GBP", "cash": 833.29, "xp": 345 },
    "location": {
      "address": "Krootstraat, 1104 KR, Amsterdam",
      "latitude": 52.3139338,
      "longitude": 4.977542
    },
    "appointmentDateTime": "2022-09-29T17:05:43.969Z"
  },
  {
    "id": "30d2843c-60c0-41b6-b1b3-3fc4ff3cffa8",
    "title": "Von, Dibbert and Rempel",
    "category": "TRAINING",
    "reward": { "xp": 1000 },
    "location": {
      "address": "Albert Heijn; Jodenbreestraat 21, Amsterdam",
      "latitude": 52.3688487,
      "longitude": 4.9035384
    }
  },
  {
    "id": "fced112c-0774-4ddc-818b-2b04ec1d4df7",
    "title": "Experience Task for O'Kon Group",
    "category": "EXPERIENCE",
    "reward": { "currencyCode": "EUR", "cash": 97.33, "xp": 848 },
    "location": {
      "address": "Charlotte van Bourbonhof, 5611 HZ, Eindhoven",
      "latitude": 51.4370533,
      "longitude": 5.4704999
    },
    "appointmentDateTime": "2023-01-08T12:18:32.512Z"
  },
  {
    "id": "4acb5b85-0ff8-4d9b-940e-61a1b5d2da00",
    "title": "Other Task for Feest, Greenholt and Volkman",
    "category": "OTHER",
    "reward": { "currencyCode": "GBP", "cash": 984.47, "xp": 173 },
    "location": {
      "address": "Charlotte van Bourbonhof, 5611 HZ, Eindhoven",
      "latitude": 51.4370533,
      "longitude": 5.4704999
    },
    "appointmentDateTime": "2022-01-26T15:17:14.412Z"
  },
  {
    "id": "0a6b7e86-84cb-4cbc-8ec3-115f3295ddc7",
    "title": "Outdoor Task for Cummings, Streich and Koepp",
    "category": "OUTDOOR-CHECK",
    "reward": { "currencyCode": "EUR", "cash": 798.71, "xp": 445 },
    "location": {
      "address": "Wilhelminastraat, 1015 RL, Amsterdam",
      "latitude": 52.3612447,
      "longitude": 4.862535
    }
  },
  {
    "id": "93c87758-62eb-4340-9205-6252afd23c79",
    "title": "Nienow and Sons",
    "category": "START-HERE",
    "reward": { "xp": 1000 }
  },
  {
    "id": "d251ae2a-5b42-428a-80a7-27b6ddc82b9d",
    "title": "Outdoor Task for Ritchie - Carroll",
    "category": "OUTDOOR-CHECK",
    "reward": { "currencyCode": "GBP", "cash": 770.67, "xp": 400 },
    "location": {
      "address": "Donauweg, 1043 AJ, Amsterdam",
      "latitude": 52.394659,
      "longitude": 4.8370988
    }
  },
  {
    "id": "7d7d003c-6ac9-4e1e-b31c-3908894e37c1",
    "title": "Jacobi - Barrows",
    "category": "TRAINING",
    "reward": { "xp": 1000 },
    "location": {
      "address": "Kanaalstraat, 1054 XS, Amsterdam",
      "latitude": 52.3608781,
      "longitude": 4.8578002
    }
  },
  {
    "id": "72ab3b67-13a1-49bf-9bde-2afb8bb589d2",
    "title": "Mystery Task for Lehner, Lueilwitz and Bauch",
    "category": "MYSTERY",
    "reward": { "currencyCode": "EUR", "cash": 828.25, "xp": 854 },
    "location": {
      "address": "StreetThatDoesNotExist, 1013AD, CityThatDoesNotExist",
      "latitude": 52.3649521,
      "longitude": 4.862821599999
    },
    "appointmentDateTime": "2022-03-10T09:23:20.218Z"
  },
  {
    "id": "85125263-8b6d-43f8-814f-8ba28e0f3419",
    "title": "Couch Task for Becker - Nolan",
    "category": "COUCH",
    "reward": { "currencyCode": "GBP", "cash": 854.85, "xp": 119 },
    "location": {
      "address": "Westerdoksdijk, 1013AD, Amsterdam",
      "latitude": 52.3872679,
      "longitude": 4.892376
    }
  },
  {
    "id": "eda8b3e5-a094-4b6b-99a3-24279fdd953f",
    "title": "Bayer, Langworth and Zemlak",
    "category": "TRAINING",
    "reward": { "xp": 1000 },
    "location": {
      "address": "Kinkerstraat, 1053 DC, Amsterdam",
      "latitude": 52.3649521,
      "longitude": 4.8628216
    }
  },
  {
    "id": "54bcb40f-a967-4678-b688-ebda09795357",
    "title": "Davis LLC",
    "category": "START-HERE",
    "reward": { "xp": 1000 }
  },
  {
    "id": "9e0e208c-966a-4580-9461-4fae92df30f0",
    "title": "Sales Task for Schmidt - Gibson",
    "category": "SALES",
    "reward": { "currencyCode": "GBP", "cash": 798.16, "xp": 75 },
    "location": {
      "address": "Krootstraat, 1104 KR, Amsterdam",
      "latitude": 52.3139338,
      "longitude": 4.977542
    }
  },
  {
    "id": "51f46cad-ade4-43c5-80ef-1ac3fdb67b2b",
    "title": "Sales Task for Roob - Corwin",
    "category": "SALES",
    "reward": { "currencyCode": "EUR", "cash": 555.29, "xp": 677 },
    "location": {
      "address": "Kanaalstraat 206 2, 1054XS Amsterdam",
      "latitude": 52.3608781,
      "longitude": 4.8578002
    }
  },
  {
    "id": "178a4be5-97fa-4c65-a986-f6ede51ca294",
    "title": "Other Task for Ledner Group",
    "category": "OTHER",
    "reward": { "currencyCode": "GBP", "cash": 224.82, "xp": 557 },
    "location": {
      "address": "Kinkerstraat, 1053 DC, Amsterdam",
      "latitude": 52.3649521,
      "longitude": 4.8628216
    },
    "appointmentDateTime": "2022-11-07T00:47:05.409Z"
  },
  {
    "id": "aba541f0-9be5-4b93-9640-b2aabbd721e9",
    "title": "Outdoor Task for Nikolaus - Larkin",
    "category": "OUTDOOR-CHECK",
    "reward": { "currencyCode": "EUR", "cash": 303.41, "xp": 398 },
    "location": {
      "address": "Pieter Jacobszstraat, 1012HL, AMSTERDAM",
      "latitude": 52.3717662,
      "longitude": 4.8941016
    },
    "appointmentDateTime": "2022-06-30T07:44:24.739Z"
  },
  {
    "id": "1bfb4782-55d9-468c-b8eb-0209f5c1359b",
    "title": "Experience Task for Nitzsche Group",
    "category": "EXPERIENCE",
    "reward": { "currencyCode": "EUR", "cash": 983.68, "xp": 865 },
    "location": {
      "address": "Van Duylstraat, 3026 SL, Rotterdam",
      "latitude": 51.9114992,
      "longitude": 4.4432904
    },
    "appointmentDateTime": "2022-11-15T21:45:14.721Z"
  },
  {
    "id": "3467479c-1b5a-4f62-af16-6781ab0446b2",
    "title": "Other Task for Durgan, Wolff and Torp",
    "category": "OTHER",
    "reward": { "currencyCode": "EUR", "cash": 624.72, "xp": 63 },
    "location": {
      "address": "Schiedamsedijk, 3134 KK, Vlaardingen",
      "latitude": 51.9087144,
      "longitude": 4.3646747
    }
  },
  {
    "id": "81c09b8b-d388-4575-a2f6-d2825e301039",
    "title": "Other Task for Lesch, Parisian and Fadel",
    "category": "OTHER",
    "reward": { "currencyCode": "GBP", "cash": 86.3, "xp": 842 },
    "location": {
      "address": "Kanaalstraat 206, 1054XS Amsterdam",
      "latitude": 52.3608781,
      "longitude": 4.8578002
    }
  },
  {
    "id": "39913b5a-f7a2-40d8-8392-2f7a74c7a100",
    "title": "Mystery Task for Cremin - Lind",
    "category": "MYSTERY",
    "reward": { "currencyCode": "GBP", "cash": 352.81, "xp": 329 },
    "location": {
      "address": "Raadhuislaan, 9665 KD, Oude Pekela",
      "latitude": 53.104558,
      "longitude": 7.0072942
    },
    "appointmentDateTime": "2022-05-05T07:56:35.282Z"
  },
  {
    "id": "0622b1c9-5794-4fee-a239-29dc3f13bb71",
    "title": "Couch Task for O'Kon Group",
    "category": "COUCH",
    "reward": { "currencyCode": "GBP", "cash": 305, "xp": 506 },
    "location": {
      "address": "Kanaalstraat 206, 1054XS Amsterdam",
      "latitude": 52.3608781,
      "longitude": 4.8578002
    },
    "appointmentDateTime": "2022-02-09T00:35:40.638Z"
  },
  {
    "id": "8d766875-a165-4ea6-86cc-43ca5bc03fa7",
    "title": "Wilderman, Schowalter and Mohr",
    "category": "START-HERE",
    "reward": { "xp": 1000 }
  },
  {
    "id": "f0214edc-f4d9-4578-9337-fdcdeca64a68",
    "title": "Zulauf - Swift",
    "category": "START-HERE",
    "reward": { "xp": 1000 }
  },
  {
    "id": "55f07e77-4fb9-47d2-a938-0bd17981c1f0",
    "title": "Experience Task for Howell - Franey",
    "category": "EXPERIENCE",
    "reward": { "currencyCode": "EUR", "cash": 763.01, "xp": 220 },
    "location": {
      "address": "Kanaalstraat 206 2, 1054XS Amsterdam",
      "latitude": 52.3608781,
      "longitude": 4.8578002
    },
    "appointmentDateTime": "2023-01-08T00:44:46.836Z"
  },
  {
    "id": "67032a62-cd75-415d-b427-9fa2ac79f227",
    "title": "Monahan, Towne and Feeney",
    "category": "TRAINING",
    "reward": { "xp": 1000 },
    "location": {
      "address": "Westerdok, 1013 BH, Amsterdam",
      "latitude": 52.3834939,
      "longitude": 4.8916505
    }
  },
  {
    "id": "b0b127c3-3ea0-448f-a2c2-c6a7b4d98c64",
    "title": "Other Task for Frami, Lehner and Reichert",
    "category": "OTHER",
    "reward": { "currencyCode": "EUR", "cash": 635.01, "xp": 894 },
    "location": {
      "address": "Donauweg, 1043 AJ, Amsterdam",
      "latitude": 52.394659,
      "longitude": 4.8370988
    },
    "appointmentDateTime": "2022-05-31T07:38:40.539Z"
  },
  {
    "id": "29b65a51-3b6e-4b5e-92e8-9f96319633d6",
    "title": "Purchase Task for Jacobi and Sons",
    "category": "PURCHASE",
    "reward": { "currencyCode": "GBP", "cash": 805.47, "xp": 137 },
    "location": {
      "address": "Kinkerstraat, 1053 DC, Amsterdam",
      "latitude": 52.3649521,
      "longitude": 4.8628216
    }
  },
  {
    "id": "00481995-30c1-4c39-b77b-947f4a4f2eac",
    "title": "Purchase Task for Beahan and Sons",
    "category": "PURCHASE",
    "reward": { "currencyCode": "GBP", "cash": 150.86, "xp": 990 },
    "location": {
      "address": "Taalstraat, 5261 BE, Vught",
      "latitude": 51.6671726,
      "longitude": 5.294402
    },
    "appointmentDateTime": "2022-10-05T20:51:57.205Z"
  },
  {
    "id": "8d45fe95-2902-43a1-92f9-4f78e5082420",
    "title": "Merchandising Task for Legros Inc",
    "category": "MERCHANDISING",
    "reward": { "currencyCode": "GBP", "cash": 526.86, "xp": 71 },
    "location": {
      "address": "Kanaalstraat, 1054 XS, Amsterdam",
      "latitude": 52.3608781,
      "longitude": 4.8578002
    }
  },
  {
    "id": "e78bcf6e-223b-4837-9b32-4077cb721e30",
    "title": "Outdoor Task for Johnston LLC",
    "category": "OUTDOOR-CHECK",
    "reward": { "currencyCode": "GBP", "cash": 369.87, "xp": 27 },
    "location": {
      "address": "Westerdoksdijk, 1013 BX, Amsterdam",
      "latitude": 52.3856225,
      "longitude": 4.8928882
    },
    "appointmentDateTime": "2022-10-22T10:49:27.410Z"
  },
  {
    "id": "82870257-c963-4fcf-85ec-8fd15fb2442a",
    "title": "Sales Task for Watsica - McKenzie",
    "category": "SALES",
    "reward": { "currencyCode": "EUR", "cash": 324.2, "xp": 228 },
    "location": {
      "address": "Schaarweg, 1276 AE, Huizen",
      "latitude": 52.2949518,
      "longitude": 5.2496192
    }
  },
  {
    "id": "a1bc08db-1492-4d72-b094-fad4b4bc71da",
    "title": "Couch Task for Zemlak - Oberbrunner",
    "category": "COUCH",
    "reward": { "currencyCode": "EUR", "cash": 594.22, "xp": 983 },
    "location": {
      "address": "Wilhelminastraat, 1015 RL, Amsterdam",
      "latitude": 52.3612447,
      "longitude": 4.862535
    }
  },
  {
    "id": "964c07aa-e468-4c8f-8be3-120e1c6eba43",
    "title": "Experience Task for Prosacco Group",
    "category": "EXPERIENCE",
    "reward": { "currencyCode": "GBP", "cash": 620.83, "xp": 836 },
    "location": {
      "address": "Pieter Jacobszstraat, 1012HL, AMSTERDAM",
      "latitude": 52.3717662,
      "longitude": 4.8941016
    },
    "appointmentDateTime": "2022-03-07T02:04:46.205Z"
  },
  {
    "id": "db73e097-9edb-4a05-8413-f0e7386c2ae1",
    "title": "Checks Task for Schumm - Beahan",
    "category": "CHECKS",
    "reward": { "currencyCode": "EUR", "cash": 81.1, "xp": 69 },
    "location": {
      "address": "Schaarweg, 1276 AE, Huizen",
      "latitude": 52.2949518,
      "longitude": 5.2496192
    },
    "appointmentDateTime": "2022-05-28T10:06:19.081Z"
  },
  {
    "id": "0f92ba29-79e9-4e95-b136-bf439f603f1a",
    "title": "Experience Task for Hegmann Group",
    "category": "EXPERIENCE",
    "reward": { "currencyCode": "EUR", "cash": 135.82, "xp": 58 },
    "location": {
      "address": "Kanaalstraat, 1054 XS, Amsterdam",
      "latitude": 52.3608781,
      "longitude": 4.8578002
    },
    "appointmentDateTime": "2022-11-09T09:42:01.025Z"
  },
  {
    "id": "988c68ca-971f-4524-b271-5a1694219b54",
    "title": "Sales Task for Abernathy LLC",
    "category": "SALES",
    "reward": { "currencyCode": "GBP", "cash": 996.04, "xp": 905 },
    "location": {
      "address": "Kanaalstraat, 1054 WZ, Amsterdam",
      "latitude": 52.3628334,
      "longitude": 4.866487
    }
  },
  {
    "id": "1186fa2a-5d01-4b32-b57b-2d3729d78b91",
    "title": "Other Task for Koelpin - Hodkiewicz",
    "category": "OTHER",
    "reward": { "currencyCode": "GBP", "cash": 176.48, "xp": 434 },
    "location": {
      "address": "Kiekendiefhorst, 2317 AD, Leiden",
      "latitude": 52.1726879,
      "longitude": 4.5081376
    }
  },
  {
    "id": "cc247230-9f3c-4eb7-b036-f7d5b808b29c",
    "title": "Mystery Task for Pouros, Kutch and Bayer",
    "category": "MYSTERY",
    "reward": { "currencyCode": "GBP", "cash": 150.02, "xp": 595 },
    "location": {
      "address": "Vliegenvangerlaan, 2566 RN, Den Haag",
      "latitude": 52.0767319,
      "longitude": 4.2483385
    }
  },
  {
    "id": "c57b1f35-4d82-4570-85f6-84b83b2a7d94",
    "title": "Sales Task for Gleichner, Wiegand and McClure",
    "category": "SALES",
    "reward": { "currencyCode": "EUR", "cash": 88.51, "xp": 212 },
    "location": {
      "address": "Kanaalstraat, 1054 XG, Amsterdam",
      "latitude": 52.3606387,
      "longitude": 4.8575122
    }
  },
  {
    "id": "252357de-4370-40e5-9c45-eb7110a5a0da",
    "title": "Other Task for Fahey, Johnston and Schultz",
    "category": "OTHER",
    "reward": { "currencyCode": "EUR", "cash": 197.26, "xp": 589 },
    "location": {
      "address": "Albert Heijn; Jodenbreestraat 21, Amsterdam",
      "latitude": 52.3688487,
      "longitude": 4.9035384
    }
  },
  {
    "id": "e6b2d098-f784-4580-b2ad-b5387f0df11a",
    "title": "Sales Task for Swaniawski, Kozey and Balistreri",
    "category": "SALES",
    "reward": { "currencyCode": "EUR", "cash": 365.13, "xp": 340 },
    "location": {
      "address": "Gagelveld, 5541 GP, Reusel",
      "latitude": 51.3696168,
      "longitude": 5.1618537
    }
  },
  {
    "id": "b7306ac9-d42c-4ce1-ab00-3db3ab2b89aa",
    "title": "Rath LLC",
    "category": "TRAINING",
    "reward": { "xp": 1000 },
    "location": {
      "address": "Kinkerstraat, 1053 DC, Amsterdam",
      "latitude": 52.3649521,
      "longitude": 4.8628216
    }
  },
  {
    "id": "b32da839-f68d-4eff-b273-74646693592b",
    "title": "Merchandising Task for Kohler - Carter",
    "category": "MERCHANDISING",
    "reward": { "currencyCode": "GBP", "cash": 880.07, "xp": 750 },
    "location": {
      "address": "Kiekendiefhorst, 2317 AD, Leiden",
      "latitude": 52.1726879,
      "longitude": 4.5081376
    }
  },